,hotelName,stars,price,cityName,countryCode,countryName,address,location,url,latitude,longitude,key,center_distance
0,Aalborg Hotel Amsterdam,3.0,39,Amsterdam,NL,Netherlands,Sarphatipark 106,Amsterdam Netherlands,http://www.aalborg.nl/,52.3537,4.89746,Amsterdam,1.6429231185082076
1,Acostar Hotel,2.0,76,Amsterdam,NL,Netherlands,Kerkstraat 45-49,Amsterdam Netherlands,http://www.acostar.nl/_en/contact.html,52.3654,4.88553,Amsterdam,1.2614321627458003
2,Acro Hotel Amsterdam,2.0,51,Amsterdam,NL,Netherlands,Jan Luijkenstraat 44,Amsterdam Netherlands,http://poethotelamsterdam.com/,52.3599,4.8819099999999995,Amsterdam,1.7275775379873612
3,Admiraal De Ruijterweg Apartment,3.0,377,Amsterdam,NL,Netherlands,614 1055 ND,Amsterdam Netherlands,,52.38399999999999,4.8478,Amsterdam,4.194803863361082
4,Admiral B&B,1.0,96,Amsterdam,NL,Netherlands,Admiralengracht 209 HS De Baarsjes,Amsterdam Netherlands,http://www.admiralhouse-wells.co.uk/,52.3705,4.85635,Amsterdam,3.227802087076566
5,Alexander Hotel Amsterdam,3.0,66,Amsterdam,NL,Netherlands,Vondelstraat 42-44,Amsterdam Netherlands,http://www.alexandersapartments.com/,52.3624,4.87718,Amsterdam,1.90144244228032
6,All Inn The Family B&B,3.0,94,Amsterdam,NL,Netherlands,Tweede Egelantiersdwstr 10,Amsterdam Netherlands,http://www.thecraigcastledouglas.co.uk/,52.3768,4.88199,Amsterdam,1.7665522817500756
7,Alp Hotel Amsterdam,2.0,78,Amsterdam,NL,Netherlands,De Clercqstraat 52,Amsterdam Netherlands,http://www.amsterdam-hotels-guide.com/amsterdam-hotel-alp.htm,52.3709,4.87006,Amsterdam,2.3047713596789645
8,Ambassade Hotel Amsterdam,4.0,188,Amsterdam,NL,Netherlands,Herengracht 341,Amsterdam Netherlands,http://www.ambassade-hotel.nl/,52.3695,4.88708,Amsterdam,1.1351850197439946
9,Amistad Hotel,2.0,94,Amsterdam,NL,Netherlands,Kerkstraat 42,Amsterdam Netherlands,http://www.amistad.nl,52.3655,4.8852,Amsterdam,1.280879724951633
10,Amnesia Canal House,1.0,263,Amsterdam,NL,Netherlands,Bergstraat 11,Amsterdam Netherlands,http://www.houseboathotel.nl/,52.3756,4.8890400000000005,Amsterdam,1.3024200515419917
11,Ams Suites Amsterdam,5.0,157,Amsterdam,NL,Netherlands,Elandsstraat 1,Amsterdam Netherlands,http://www.1stamsterdamhotels.com/ams_hotel_concert_inn.html,52.3709,4.8822,Amsterdam,1.490686239792004
12,Amstel Botel Hotel Amsterdam,3.0,65,Amsterdam,NL,Netherlands,Ndsm Pier 3,Amsterdam Netherlands,http://www.amstelbotel.nl/,52.4048,4.88265,Amsterdam,4.337011053643012
13,Amstel Canal Guest House Amsterdam,4.0,148,Amsterdam,NL,Netherlands,Staalkade 2,Amsterdam Netherlands,http://amstelcanalhouse.com/,52.3677,4.897480000000001,Amsterdam,0.4154328062061097
14,Amstel Corner Hotel,3.0,131,Amsterdam,NL,Netherlands,Sarphatikade 16,Amsterdam Netherlands,,52.358999999999995,4.90271,Amsterdam,1.0014021566899256
15,Amstel Deluxe,2.0,242,Amsterdam,NL,Netherlands,Amstel 87-1,Amsterdam Netherlands,,52.3635,4.9032599999999995,Amsterdam,0.49940948152700376
16,Amstel Riverview,1.0,81,Amsterdam,NL,Netherlands,Amsteldijk 22 II,Amsterdam Netherlands,http://www.amstelriverview.com,52.357,4.9044099999999995,Amsterdam,1.2236358061169235
17,Amstel Square Apartments,4.0,306,Amsterdam,NL,Netherlands,Omval 94,Amsterdam Netherlands,,52.345,4.9145,Amsterdam,2.6639280304817556
18,Amstel Studio Apartments,1.0,95,Amsterdam,NL,Netherlands,Utrechtsedwarsstraat 51,Amsterdam Netherlands,http://lovingapartments.com/Amsterdam-apartments-home.html,52.3702,4.895169999999999,Amsterdam,0.6224628764099408
19,Amsterdam 4 Holiday Bed And Breakfast,3.0,94,Amsterdam,NL,Netherlands,Geenlvincksteeg 2,Amsterdam Netherlands,http://www.amsterdam4holiday.nl,52.3665,4.89161,Amsterdam,0.8306509008234788
20,Amsterdam Apartment,1.5,99,Amsterdam,NL,Netherlands,Hekelveld 7,Amsterdam Netherlands,,52.3777,4.89543,Amsterdam,1.2146965506938492
21,Amsterdam Apartments Alexanders,3.0,73,Amsterdam,NL,Netherlands,Gerard Doustraat 6 hs,Amsterdam Netherlands,http://www.alexandersapartments.com/,52.3551,4.88702,Amsterdam,1.82353288237992
22,Amsterdam At Home Bed & Breakfast,2.5,135,Amsterdam,NL,Netherlands,Korte Keizersstraat 12,Amsterdam Netherlands,http://www.amsterdamathome.eu/,52.3712,4.90287,Amsterdam,0.3609104634580979
23,Amsterdam Bed & Breakfast,2.0,79,Amsterdam,NL,Netherlands,Tichelstraat 26,Amsterdam Netherlands,http://amsterdambedandbreakfast.com/index.html,52.3788,4.88084,Amsterdam,1.9603627493211617
24,Amsterdam Boutique Apartments,5.0,281,Amsterdam,NL,Netherlands,Singel 401,Amsterdam Netherlands,http://www.amsterdamboutiqueapartments.com,52.3684,4.8886400000000005,Amsterdam,1.017395536417018
25,Amsterdam Canal Guest Apartment,1.0,153,Amsterdam,NL,Netherlands,Zwanenburgwal 296 Amsterdam-Centrum,Amsterdam Netherlands,,52.3678,4.89816,Amsterdam,0.36847994778306375
26,Amsterdam CS Apartment,2.0,200,Amsterdam,NL,Netherlands,Nieuwezijds Voorburgwal 56,Amsterdam Netherlands,,52.3764,4.89345,Amsterdam,1.1624074112777567
27,Amsterdam CS Jacuzzi Studio,2.5,179,Amsterdam,NL,Netherlands,Prins Hendrikkade 11,Amsterdam Netherlands,http://budgethotelsinamsterdam.com/netherlands/studios-amsterdam/,52.3755,4.90297,Amsterdam,0.8372744597223154
28,Amsterdam Hotel Parklane,2.0,71,Amsterdam,NL,Netherlands,Plantage Parklaan 16,Amsterdam Netherlands,http://www.hotel-parklane.nl/cfm/show.cfm?id=1116,52.3676,4.909680000000001,Amsterdam,0.418948978113984
29,Amsterdam House Hotel,3.0,122,Amsterdam,NL,Netherlands,s-Gravelandseveer 3-4,Amsterdam Netherlands,http://www.amsterdamhouse.com/,52.3677,4.89608,Amsterdam,0.5105667126713347
30,Amsterdam Houseboat Amsterdam,2.0,302,Amsterdam,NL,Netherlands,Sarphatikade 16W,Amsterdam Netherlands,http://www.amsterdamhouseboats.nl/how_to_buy_a_houseboat_in_amster.htm,52.3591,4.902830000000001,Amsterdam,0.9898485176863343
31,Amsterdam Jordaan Apartments,3.0,193,Amsterdam,NL,Netherlands,Lijnbaansgracht 58,Amsterdam Netherlands,http://lovingapartments.com/Amsterdam-apartments-home.html,52.3783,4.8797,Amsterdam,1.9896085000887194
32,Amsterdam Jordaan House,1.0,263,Amsterdam,NL,Netherlands,Binnen Oranjestraat 1,Amsterdam Netherlands,http://www.amsterdam.info/jordaan/,52.3825,4.887519999999999,Amsterdam,1.9499790512607482
33,Amsterdam Waterfront Hotel,3.0,66,Amsterdam,NL,Netherlands,Singel 458,Amsterdam Netherlands,http://www.our-amsterdam-hotels.com/forview/netherlands/amsterdam/waterfront.html,52.3675,4.8890199999999995,Amsterdam,0.9919354738554302
34,Amsterdam Wiechmann Hotel,2.0,96,Amsterdam,NL,Netherlands,Prinsengracht 328 - 332,Amsterdam Netherlands,http://www.hotelwiechmann.nl,52.3693,4.88237,Amsterdam,1.450804025265658
35,Amsterdamse Bos Apartment,2.0,177,Amsterdam,NL,Netherlands,Nijenburg 94,Amsterdam Netherlands,,52.3284,4.8659099999999995,Amsterdam,5.097477839227858
36,AmsterHome New Market,1.0,414,Amsterdam,NL,Netherlands,Monnikenstraat 19,Amsterdam Netherlands,http://amsterhome.com/,52.3731,4.8997,Amsterdam,0.6270641383249552
37,Angel Canal House,1.0,246,Amsterdam,NL,Netherlands,Korsjespoortsteeg 9,Amsterdam Netherlands,http://www.amsterdamcityapartments.com,52.3774,4.8914,Amsterdam,1.3355737368003695
38,Annes Room,1.0,97,Amsterdam,NL,Netherlands,Oudezijds Achterburgwal 142,Amsterdam Netherlands,http://www.theroomslytham.co.uk/,52.3718,4.89705,Amsterdam,0.6139739877789477
39,Apartment Jordaan Superior,3.0,337,Amsterdam,NL,Netherlands,Bloemstraat 172b,Amsterdam Netherlands,http://lovingapartments.com/Amsterdam-map.html,52.3734,4.8781300000000005,Amsterdam,1.83395280998595
40,Apartment Museum Residence,2.0,321,Amsterdam,NL,Netherlands,P.C. Hooftstraat 85B,Amsterdam Netherlands,,52.36,4.8802,Amsterdam,1.8225790224291363
41,Apartment Rozengracht,1.0,196,Amsterdam,NL,Netherlands,Rozengracht 9,Amsterdam Netherlands,,52.3737,4.88242,Amsterdam,1.5741291351092699
42,Apartment Warmoesstraat,1.0,193,Amsterdam,NL,Netherlands,Warmoesstraat 77,Amsterdam Netherlands,,52.3749,4.8975599999999995,Amsterdam,0.871357678603312
43,Apollo Museum Hotel,3.0,65,Amsterdam,NL,Netherlands,P C Hooftstraat 2,Amsterdam Netherlands,http://apollo-museumhotel.h-rez.com/index.htm?lbl=ggl-en,52.3612,4.88429,Amsterdam,1.5143294210285234
44,Apollofirst Hotel,4.0,108,Amsterdam,NL,Netherlands,Apollolaan 123-127,Amsterdam Netherlands,,52.3505,4.87554,Amsterdam,2.725709533888484
45,Apostrophe Bed and Breakfast,2.5,88,Amsterdam,NL,Netherlands,Geerdinkhof 258,Amsterdam Netherlands,http://www.bedandbreakfastworld.com/amsterdam/netherlands,52.3261,4.9826,Amsterdam,7.122636774781033
46,Armada Hotel,2.0,51,Amsterdam,NL,Netherlands,Keizersgracht 713 - 715,Amsterdam Netherlands,http://armadacanalviewhotelamsterdamamsterdam.priorguest.com/it,52.3644,4.9003,Amsterdam,0.45653721390151336
47,Art Bed and Breakfast,2.0,96,Amsterdam,NL,Netherlands,Weteringschans 123,Amsterdam Netherlands,http://between-art-and-kitsch.com/,52.3603,4.8888,Amsterdam,1.319939789672358
48,Art Gallery Hotel,2.0,46,Amsterdam,NL,Netherlands,Weteringschans 67,Amsterdam Netherlands,http://www.artgalleryhotel.com,52.3614,4.88614,Amsterdam,1.3946683754434488
49,Artemis Hotel Amsterdam,4.0,93,Amsterdam,NL,Netherlands,John M Keynesplein 2,Amsterdam Netherlands,http://www.artemisamsterdam.com/,52.3416,4.82543,Amsterdam,6.079298356939854
50,Artis Aquarium Apartment in Amsterdam,3.0,238,Amsterdam,NL,Netherlands,Plantage Middenlaan 74,Amsterdam Netherlands,,52.3672,4.912669999999999,Amsterdam,0.6265318356333784
51,A-Train Hotel,3.0,87,Amsterdam,NL,Netherlands,Prins Hendrikkade 23,Amsterdam Netherlands,http://www.atrainhotel.com,52.3785,4.89656,Amsterdam,1.263554720312796
52,B&B 180 graden,2.5,255,Amsterdam,NL,Netherlands,Egelantiersgracht 476,Amsterdam Netherlands,,52.3758,4.87982,Amsterdam,1.8360108825697028
53,B&B Blossom,1.5,151,Amsterdam,NL,Netherlands,Reguliersdwarsstraat 99B,Amsterdam Netherlands,,52.3661,4.89406,Amsterdam,0.6803045654845784
54,B&B Dinteldroom,1.0,160,Amsterdam,NL,Netherlands,Dintelstraat 49-III,Amsterdam Netherlands,,52.3435,4.8935900000000006,Amsterdam,2.8078956571703673
55,B&B La Festa,1.0,106,Amsterdam,NL,Netherlands,Hazenstraat 64,Amsterdam Netherlands,http://blakeandrews.blogspot.com/,52.3699,4.880380000000001,Amsterdam,1.5932559783148088
56,B&B Orange Amsterdam,3.0,77,Amsterdam,NL,Netherlands,Ingenieur Jakoba Mulderplein,Amsterdam Netherlands,,52.3663,4.92419,Amsterdam,1.4175563342534723
57,B&B Riviera Suite,2.5,202,Amsterdam,NL,Netherlands,Krammerstraat 12 huis,Amsterdam Netherlands,,52.3459,4.88751,Amsterdam,2.6897595480706786
58,B&B Silodam,2.5,176,Amsterdam,NL,Netherlands,Silodam 129,Amsterdam Netherlands,,52.3905,4.89125,Amsterdam,2.641968321743563
59,b&nb Herengracht,1.0,129,Amsterdam,NL,Netherlands,Herengracht 176,Amsterdam Netherlands,,52.3739,4.8864,Amsterdam,1.3414585266827639
60,Banks Mansion,4.0,206,Amsterdam,NL,Netherlands,Herengracht 519-525,Amsterdam Netherlands,http://banksmansionamsterdam.hotel-rez.com/,52.3653,4.89302,Amsterdam,0.7776819943366237
61,Barbacan Hotel Amsterdam,2.0,37,Amsterdam,NL,Netherlands,Plantage Muidergracht 89,Amsterdam Netherlands,http://www.barbacan.nl/,52.3652,4.91194,Amsterdam,0.649386528223915
62,Barbizon Apartments,5.0,169,Amsterdam,NL,Netherlands,Prins Hendrikkade 59 - 72,Amsterdam Netherlands,http://www.relocationapartments.com/apartment-database/GOTUAMST.htm,52.3761,4.89953,Amsterdam,0.9438867692607761
63,Baroque Apartment,2.5,284,Amsterdam,NL,Netherlands,Sloterkade 19,Amsterdam Netherlands,,52.3573,4.854019999999999,Amsterdam,3.5781307577895665
64,Bastion Amsterdam Centrum Zuidwest,3.0,83,Amsterdam,NL,Netherlands,Nachtwachtlaan 11,Amsterdam Netherlands,http://www.bastionhotels.nl/en/ourhotels/amsterdamzuidwest/,52.3575,4.84397,Amsterdam,4.223768618154235
65,Bastion Deluxe Amsterdam Amstel,3.0,88,Amsterdam,NL,Netherlands,Verlengde Van Marwijk Kooystraat 30,Amsterdam Netherlands,http://www.bastionhotels.nl/en/,52.3336,4.9259699999999995,Amsterdam,4.11951007625906
66,Bastion Deluxe Hotel Amsterdam Centrum-Noord,3.0,88,Amsterdam,NL,Netherlands,Rode Kruisstraat 28,Amsterdam Netherlands,http://www.bastionhotels.nl/en/,52.3959,4.92835,Amsterdam,3.535275767767321
67,Bed & Apartment Singel 96,3.0,189,Amsterdam,NL,Netherlands,Singel 96,Amsterdam Netherlands,,52.3768,4.89136,Amsterdam,1.285629033586183
68,Bed & Breakfast Adriaen van Ostade,4.0,100,Amsterdam,NL,Netherlands,van Ostadestraat 66,Amsterdam Netherlands,http://www.bedworld.net/,52.3518,4.88922,Amsterdam,2.0488512846309272
69,Bed & Breakfast Boat,3.0,133,Amsterdam,NL,Netherlands,Zeeburgerpad 178,Amsterdam Netherlands,http://www.bedworld.net/,52.3667,4.93414,Amsterdam,2.0877414492706046
70,Bed & Breakfast Flynt Amsterdam,3.0,108,Amsterdam,NL,Netherlands,Eerste Helmersstraat 34,Amsterdam Netherlands,http://www.bedworld.net/,52.3638,4.876519999999999,Amsterdam,1.8999060250913258
71,Bed And Breakfast 1680 Amsterdam,3.0,90,Amsterdam,NL,Netherlands,Oudezijds Achterburgwal 144,Amsterdam Netherlands,http://bb1680.yolasite.com/,52.3718,4.89701,Amsterdam,0.6159448139343118
72,Bed and Breakfast 62,2.5,115,Amsterdam,NL,Netherlands,Kerkstraat 42,Amsterdam Netherlands,http://www.bedandbreakfast62.nl,52.3656,4.88499,Amsterdam,1.2925192435328456
73,Bed and Breakfast Amsterdam,3.0,88,Amsterdam,NL,Netherlands,Sloterkade 65-1,Amsterdam Netherlands,http://www.prinx.nl,52.3545,4.853,Amsterdam,3.757060696163413
74,Bed And Breakfast Center Amsterdam,3.0,115,Amsterdam,NL,Netherlands,Lijnbaansgracht 156,Amsterdam Netherlands,http://www.sashabedandbreakfastamsterdam.com/,52.3706,4.877280000000001,Amsterdam,1.8135727716455017
75,Bed And Breakfast Herengracht 21 Amsterdam,3.0,167,Amsterdam,NL,Netherlands,Herengracht 21,Amsterdam Netherlands,http://www.herengracht21.nl/index_en.htm,52.3787,4.89194,Amsterdam,1.4311588929875112
76,Bed and Breakfast Tulip Gallery,2.0,90,Amsterdam,NL,Netherlands,Slotermeerlaan 59 Geuzenveld-Slotermeer,Amsterdam Netherlands,http://www.bedandbreakfast-amsterdam-tulip-gallery.nl/,52.3766,4.818890000000001,Amsterdam,5.845849582299284
77,Bedandbreakfast-Amsterdam,2.5,251,Amsterdam,NL,Netherlands,Roemer Visscherstraat 18,Amsterdam Netherlands,,52.3616,4.87765,Amsterdam,1.902644095108464
78,Bedon Board,1.0,124,Amsterdam,NL,Netherlands,Van Bossepad 4,Amsterdam Netherlands,,52.3804,4.86854,Amsterdam,2.75633017893227
79,Belfort Hotel Amsterdam,3.0,59,Amsterdam,NL,Netherlands,Surinameplein 53,Amsterdam Netherlands,http://www.our-amsterdam-hotels.com/forview/netherlands/amsterdam/belfort-hotel.html,52.3578,4.85265,Amsterdam,3.6486056000156597
80,Belle Suite Apartment Amsterdam,3.0,115,Amsterdam,NL,Netherlands,Binnen Oranjestraat,Amsterdam Netherlands,,52.3819,4.8867,Amsterdam,1.927782603753461
81,Bellevue Hotel Amsterdam,3.0,75,Amsterdam,NL,Netherlands,Martelaarsgracht 10,Amsterdam Netherlands,http://bellevue-hotel-amsterdam.h-rez.com/index.htm?lbl=ggl-en,52.378,4.8967,Amsterdam,1.208495321281277
82,Bernardus Luxury Apartments,3.5,226,Amsterdam,NL,Netherlands,Jan Bernardusstraat 12,Amsterdam Netherlands,,52.3498,4.913469999999999,Amsterdam,2.133075191810054
83,BEST WESTERN Blue Square Hotel,4.0,65,Amsterdam,NL,Netherlands,Slotermeerlaan 80,Amsterdam Netherlands,http://bestwestern.worldexecutive.com/locations/netherlands/amsterdam/74120.html,52.3789,4.82051,Amsterdam,5.785169009216577
84,BEST WESTERN Blue Tower Hotel,4.0,79,Amsterdam,NL,Netherlands,Leeuwendalersweg 21,Amsterdam Netherlands,http://bestwestern.worldexecutive.com/locations/netherlands/amsterdam/74116.html,52.3794,4.84569,Amsterdam,4.1409600272164475
85,Best Western Dam Square Inn,3.0,98,Amsterdam,NL,Netherlands,Gravenstraat 12 -16,Amsterdam Netherlands,http://www.bestwestern.nl,52.3743,4.89259,Amsterdam,1.0258027931124385
86,Best Western Delphi Hotel,4.0,105,Amsterdam,NL,Netherlands,Apollolaan 101-105,Amsterdam Netherlands,http://www.delphihotel.nl,52.3506,4.87716,Amsterdam,2.641422610255095
87,Best Western Leidse Square Hotel,3.0,57,Amsterdam,NL,Netherlands,Tesselschadestraat 23,Amsterdam Netherlands,http://www.bestwestern.nl,52.3621,4.87854,Amsterdam,1.8258504669694462
88,BickersBed Guestrooms,1.0,129,Amsterdam,NL,Netherlands,Grote Bickersstraat 23 HS,Amsterdam Netherlands,,52.38399999999999,4.88905,Amsterdam,2.037803408736987
89,Bicycle Hotel,1.0,38,Amsterdam,NL,Netherlands,Van Ostadestraat 123,Amsterdam Netherlands,http://www.bicyclehotel.com/,52.3525,4.893619999999999,Amsterdam,1.8513298407041308
90,Bilderberg Garden Hotel,5.0,139,Amsterdam,NL,Netherlands,Dijsselhofplantsoen 7,Amsterdam Netherlands,http://www.bilderberg.nl/uk/hotels/garden-hotel/,52.3514,4.87405,Amsterdam,2.7290340993507485
91,Bilderberg Hotel Jan Luyken,4.0,107,Amsterdam,NL,Netherlands,Jan Luykenstraat 58,Amsterdam Netherlands,http://www.bilderberg.nl/uk/hotels/hotel-jan-luyken/,52.3597,4.8811,Amsterdam,1.7863016797656508
92,Black & White,2.5,233,Amsterdam,NL,Netherlands,Holendrechtstraat 22 -1 Zuideramstel,Amsterdam Netherlands,http://www.black.co.uk/,52.3491,4.90866,Amsterdam,2.1298506798789743
93,Blue Wave Houseboat,2.5,161,Amsterdam,NL,Netherlands,da Costakade 342,Amsterdam Netherlands,,52.3684,4.8727800000000006,Amsterdam,2.097128075329247
94,BoCinQ Canal Residence,3.0,257,Amsterdam,NL,Netherlands,Prinsengracht 673,Amsterdam Netherlands,,52.3665,4.88214,Amsterdam,1.4684283338860873
95,Borgmann Villa Hotel,3.0,59,Amsterdam,NL,Netherlands,Koningslaan 48,Amsterdam Netherlands,http://www.hotel-borgmann.nl,52.3554,4.862480000000001,Amsterdam,3.129375400332293
96,Boutique Hotel View,2.0,106,Amsterdam,NL,Netherlands,Leidsekade 77,Amsterdam Netherlands,http://www.boutiquehotelview.nl,52.3648,4.87972,Amsterdam,1.6621844090256093
97,Brems Apartments,2.5,255,Amsterdam,NL,Netherlands,Kerkstraat 29-2,Amsterdam Netherlands,,52.3658,4.88491,Amsterdam,1.2934841487121385
98,Brewersloft,1.5,306,Amsterdam,NL,Netherlands,Brouwersgracht 9,Amsterdam Netherlands,,52.3789,4.89309,Amsterdam,1.408522986768955
99,Brouwers Studio,3.0,171,Amsterdam,NL,Netherlands,Brouwersgracht 178-174,Amsterdam Netherlands,,52.3811,4.88794,Amsterdam,1.8060430899660374
100,Brouwersgracht Apartments,2.5,382,Amsterdam,NL,Netherlands,Brouwersgracht 208,Amsterdam Netherlands,http://lovingapartments.com/Amsterdam-apartments-home.html,52.3825,4.884440000000001,Amsterdam,2.0747799770665085
101,Business Class Apartment,1.0,263,Amsterdam,NL,Netherlands,Haarlemmer Houttuinen 39-11 Amsterdam-Centrum,Amsterdam Netherlands,,52.3813,4.89141,Amsterdam,1.6971343812173523
102,Campanile Amsterdam,3.0,96,Amsterdam,NL,Netherlands,Loosdrechtdreef 3 Amsterdam Zuidoost,Amsterdam Netherlands,http://www.campanile-amsterdam-zuidoost.nl,52.3118,4.98623,Amsterdam,8.416182839502516
103,Canal Apartment Ray,1.5,349,Amsterdam,NL,Netherlands,Prinsengracht 1071,Amsterdam Netherlands,,52.3624,4.89963,Amsterdam,0.6766388237008774
104,Canal House Amsterdam,4.0,202,Amsterdam,NL,Netherlands,148-52 Keizersgracht,Amsterdam Netherlands,http://www.canalhouse.nl/,52.3803,4.8891800000000005,Amsterdam,1.6844414659524656
105,Canal Rooms Amsterdam,1.0,113,Amsterdam,NL,Netherlands,Brouwersgracht 124,Amsterdam Netherlands,http://www.hotelrooms.com/Europe_Netherlands_Amsterdam_Canal_Area.html,52.3801,4.889480000000001,Amsterdam,1.6544608668924004
106,Canal Suites,4.0,180,Amsterdam,NL,Netherlands,Keizersgracht 302,Amsterdam Netherlands,http://amstelcanalhouse.com/reservation.htm,52.3706,4.88448,Amsterdam,1.331854717911472
107,Canal View Apartments Lex Amsterdam,3.0,198,Amsterdam,NL,Netherlands,Leidsegracht 74,Amsterdam Netherlands,http://www.apartmentservice.com/search/Netherlands/Amsterdam/propertyid65738,52.3661,4.88199,Amsterdam,1.4842188649093062
108,Canal View At The Centre of Amsterdam,2.5,297,Amsterdam,NL,Netherlands,Looiersgracht,Amsterdam Netherlands,http://www.pulitzeramsterdam.com/hotel-pulitzer,52.3679,4.88002,Amsterdam,1.603515213614514
109,Captain Canalhouse Luxury Apartments,3.0,285,Amsterdam,NL,Netherlands,Binnenkant 46,Amsterdam Netherlands,http://lovingapartments.com/Amsterdam-apartments-home.html,52.3727,4.905930000000001,Amsterdam,0.5489756170045615
110,Casa Nuova,2.0,194,Amsterdam,NL,Netherlands,Bosboom Toussaintstraat 57,Amsterdam Netherlands,http://www.casadellapoesia.org/poeti/henson-lance/bibliografia,52.3652,4.87498,Amsterdam,1.971337694691842
111,Casa Waterloo Amsterdam,2.0,210,Amsterdam,NL,Netherlands,Waterlooplein 177,Amsterdam Netherlands,http://www.go-amsterdam-hotels.com/casa-waterloo-amsterdam.php,52.3684,4.90247,Amsterdam,0.08755527451377376
112,Central Budget Apartments,1.0,135,Amsterdam,NL,Netherlands,Haringpakkerssteeg 7 Amsterdam-Centrum,Amsterdam Netherlands,http://lovingapartments.com/Amsterdam-apartments-home.html,52.3769,4.89711,Amsterdam,1.0850339272529546
113,Chariot Amsterdam Apartment,3.0,304,Amsterdam,NL,Netherlands,Singel 122,Amsterdam Netherlands,,52.376000000000005,4.890619999999999,Amsterdam,1.253967169786606
114,Chic & Basic Amsterdam,2.0,87,Amsterdam,NL,Netherlands,Herengracht 13-19,Amsterdam Netherlands,http://www.chicuk.com/,52.379,4.89204,Amsterdam,1.4554039872877624
115,citizenM Amsterdam City,4.0,115,Amsterdam,NL,Netherlands,Prinses Irenestraat 30,Amsterdam Netherlands,http://www.clicklinktracker.com/c/?id=3691,52.3418,4.8752699999999995,Amsterdam,3.493549027157963
116,citizenM hotel Amsterdam Airport,4.0,105,Amsterdam,NL,Netherlands,Jan Plezierweg 2,Amsterdam Netherlands,http://www.clicklinktracker.com/c/?id=3690,52.3098,4.7568,Amsterdam,11.915429661724655
117,City Center Waterlooplein,1.0,202,Amsterdam,NL,Netherlands,Waterlooplein Apartment 29-c,Amsterdam Netherlands,,52.3688,4.9014,Amsterdam,0.17295089435959693
118,City Centre Apartments Amsterdam,3.0,297,Amsterdam,NL,Netherlands,Bloemstraat,Amsterdam Netherlands,http://www.getreadyamsterdam.com/,52.3738,4.879630000000001,Amsterdam,1.7537114595927523
119,City Centre Church Apartments,1.0,271,Amsterdam,NL,Netherlands,Kerkstraat 51,Amsterdam Netherlands,,52.3652,4.8857800000000005,Amsterdam,1.250188866684022
120,City Centre VIP Apartments,2.0,249,Amsterdam,NL,Netherlands,Noorderstraat 33 - 37,Amsterdam Netherlands,http://www.servicedcitypads.com/Liverpool-Serviced-Apartments/deals.html,52.3613,4.89281,Amsterdam,1.043834652273553
121,City Hotel Amsterdam,2.0,27,Amsterdam,NL,Netherlands,Prins Hendrikkade 130,Amsterdam Netherlands,http://www.cityhotelamsterdam.com,52.3739,4.905469999999999,Amsterdam,0.6709784660882744
122,City Hotel Utrechtsestraat Amsterdam,2.0,70,Amsterdam,NL,Netherlands,Utrechtsestraat 2,Amsterdam Netherlands,http://www.amsterdam-hotels-guide.com/Amsterdam-City.htm,52.3659,4.89754,Amsterdam,0.4711820352505873
123,Citypark Apartment Suites,1.0,138,Amsterdam,NL,Netherlands,Eerste Constantijn Huygensstraat 24F,Amsterdam Netherlands,,52.3643,4.874140000000001,Amsterdam,2.0455799491224975
124,Claes Claesz Self Catering Apartment Amsterdam,4.0,248,Amsterdam,NL,Netherlands,Egelantiersstraat 5,Amsterdam Netherlands,,52.3771,4.88473,Amsterdam,1.6351766334093583
125,Clemens Hotel,3.0,58,Amsterdam,NL,Netherlands,Raadhuisstraat 39,Amsterdam Netherlands,http://www.clemenshotel.nl,52.3736,4.8861300000000005,Amsterdam,1.3416455868713595
126,Colours in de Pijp,3.0,148,Amsterdam,NL,Netherlands,2e Jan Van Der Heijdenstraat 12 & 14,Amsterdam Netherlands,http://www.lodging-world.com/nl/noord-holland/cities/amsterdam/pet-friendly-hotels,52.355,4.89945,Amsterdam,1.4717148632611081
127,Conscious Hotel Museum Square,3.0,71,Amsterdam,NL,Netherlands,De Lairessestraat 7,Amsterdam Netherlands,http://www.conscioushotels.com,52.3551,4.87734,Amsterdam,2.290480362371866
128,Conscious Hotel Vondelpark,3.0,154,Amsterdam,NL,Netherlands,Overtoom 519-521,Amsterdam Netherlands,http://www.conscioushotels.com,52.3578,4.85653,Amsterdam,3.3983591786291276
129,Conservatorium Hotel,5.0,340,Amsterdam,NL,Netherlands,Van Baerlestraat 27,Amsterdam Netherlands,,52.358999999999995,4.878080000000001,Amsterdam,2.0031107132258823
130,Convent Hotel Amsterdam,4.0,141,Amsterdam,NL,Netherlands,Nieuwezijds Voorburgwal 67,Amsterdam Netherlands,,52.3756,4.89277,Amsterdam,1.12175405249593
131,Crowne Plaza Amsterdam South,4.0,146,Amsterdam,NL,Netherlands,George Gershwinlaan 101,Amsterdam Netherlands,http://www.crowneplaza.com,52.336000000000006,4.87504,Amsterdam,4.055047756730476
132,Crowne Plaza Hotel Amsterdam City Centre,4.0,184,Amsterdam,NL,Netherlands,Nieuwe Zijds Voorburgwal 5,Amsterdam Netherlands,http://www.holidaycityeurope.com/cp-amsterdam-citycentre/index.htm,52.3773,4.89541,Amsterdam,1.1759006127233556
133,Daily Rooms - Amsterdam,2.0,83,Amsterdam,NL,Netherlands,Korte Lijnbaanssteeg 1,Amsterdam Netherlands,http://www.pulitzeramsterdam.com/rooms,52.3759,4.8925,Amsterdam,1.1590472182812472
134,Dam Hotel,2.0,46,Amsterdam,NL,Netherlands,Damrak 32,Amsterdam Netherlands,http://www.damhotel.com,52.3761,4.8966199999999995,Amsterdam,1.019331377042745
135,Damrak Apartments Amsterdam,3.0,282,Amsterdam,NL,Netherlands,Haringpakkerssteeg 5a - 5f,Amsterdam Netherlands,http://www.amsterdam-hotels-guide.com/amsterdam-damrak.htm,52.3769,4.897130000000001,Amsterdam,1.0844830489437922
136,Damrak Inn Hotel Amsterdam,2.0,51,Amsterdam,NL,Netherlands,Damrak 58-59,Amsterdam Netherlands,http://www.damrakinn.nl/,52.3751,4.89561,Amsterdam,0.9592811492476395
137,De Baronie Bed And Breakfast Amsterdam,3.0,87,Amsterdam,NL,Netherlands,Kalkmarkt 2,Amsterdam Netherlands,http://www.bed-breakfast-world.com/netherlands/noord-holland/amsterdam.html,52.3729,4.9073,Amsterdam,0.6033560980966747
138,De Lastage Apartments,4.0,205,Amsterdam,NL,Netherlands,Valkenburgerstraat 188 A,Amsterdam Netherlands,http://www.delastage.nl,52.3692,4.90559,Amsterdam,0.1933687002369116
139,De Oude Taveerne,3.0,64,Amsterdam,NL,Netherlands,Durgerdammerdijk 73,Amsterdam Netherlands,http://de-oude-taveerne.hotel-rez.com/,52.3773,4.98853,Amsterdam,5.879005685781113
140,Delta Hotel Amsterdam City Centre,3.0,87,Amsterdam,NL,Netherlands,Damrak 42-43,Amsterdam Netherlands,http://www.amsterdam-hotels-guide.com/Amsterdam-Delta.htm,52.3756,4.8962699999999995,Amsterdam,0.9822185023444776
141,Die Port Van Cleve Hotel Amsterdam,4.0,110,Amsterdam,NL,Netherlands,Nieuwezijds Voorburgwal 176-180,Amsterdam Netherlands,http://www.dieportvancleve.com/index.php,52.3741,4.89091,Amsterdam,1.0979916787452242
142,Doria Hotel Amsterdam,2.0,75,Amsterdam,NL,Netherlands,Damstraat 3,Amsterdam Netherlands,http://www.amsterdamhotelnet.com/hotels/Rho_hotel.htm,52.3724,4.89429,Amsterdam,0.8001190715439439
143,Dorint Hotel Amsterdam/Airport,4.0,91,Amsterdam,NL,Netherlands,Stationsplein Zw 951,Amsterdam Netherlands,http://www.dorint.com,52.3085,4.810230000000001,Amsterdam,9.18036052321027
144,Doubletree by Hilton Hotel Amsterdam Centraal Station,4.0,120,Amsterdam,NL,Netherlands,Oosterdoksstraat 4,Amsterdam Netherlands,http://doubletree1.hilton.com/en_US/dt/hotel/AMSCSDI-DoubleTree-by-Hilton-Hotel-Amsterdam-Centraal-Station/index.do,52.3766,4.9071,Amsterdam,0.9885350032634325
145,DreamJobHotel Amsterdam,5.0,349,Amsterdam,NL,Netherlands,Bloemgracht 175,Amsterdam Netherlands,,52.3739,4.87775,Amsterdam,1.8771867525467707
146,Duplex On The Canal,2.5,248,Amsterdam,NL,Netherlands,Lijnbaangracht 801 Amsterdam-Centrum,Amsterdam Netherlands,http://canalduplex.com/,52.3697,4.87793,Amsterdam,1.7562172312654922
147,Dutch Canal Boat Hotel,2.0,146,Amsterdam,NL,Netherlands,Westlandgracht 223,Amsterdam Netherlands,http://www.dutchamsterdam.nl/169-sleep-on-a-boat-in-amsterdam,52.3487,4.84614,Amsterdam,4.461900978655408
148,Dutch Masters Apartment Amsterdam,1.0,213,Amsterdam,NL,Netherlands,Keizersgracht 580 A,Amsterdam Netherlands,,52.3644,4.88874,Amsterdam,1.0855049019684042
149,Eastern Park Apartment Suites,1.0,96,Amsterdam,NL,Netherlands,Wijttenbachstraat 30,Amsterdam Netherlands,,52.3603,4.9266,Amsterdam,1.7871971100465758
150,Easy Centre Apartments Amsterdam,2.0,103,Amsterdam,NL,Netherlands,Heintje Hoekssteeg,Amsterdam Netherlands,http://easy-apartments-amsterdam.com/,52.3753,4.89907,Amsterdam,0.8696276073713237
151,Easy Rooms,2.0,171,Amsterdam,NL,Netherlands,Prins Hendrikkade 48,Amsterdam Netherlands,http://easyroomamsterdam.com,52.3765,4.89916,Amsterdam,0.9938644205630004
152,EasyHotel Amsterdam,3.0,30,Amsterdam,NL,Netherlands,Ferdinand Bolstraat van Ostadestraat 97,Amsterdam Netherlands,http://www.easyhotel.com,52.3522,4.89175,Amsterdam,1.9319327825850885
153,Eden Amsterdam American Hotel,4.0,132,Amsterdam,NL,Netherlands,Leidsekade 97,Amsterdam Netherlands,http://www.edenamsterdamamericanhotel.com/en/overview.aspx,52.3635,4.88135,Amsterdam,1.5931328950678998
154,Eden Amsterdam Manor Hotel,4.0,87,Amsterdam,NL,Netherlands,Linneausstraat 89,Amsterdam Netherlands,http://www.edenhotelgroup.com/en/hotels/amsterdam/eden-amsterdam-manor-hotel.aspx?linkTarget=overview,52.3591,4.92621,Amsterdam,1.8323864002540269
155,Eden Hotel Amsterdam,3.0,78,Amsterdam,NL,Netherlands,Amstel 144,Amsterdam Netherlands,http://www.edenamsterdamhotel.com/,52.3669,4.8989400000000005,Amsterdam,0.3371144642708947
156,Eden Lancaster Hotel,3.0,67,Amsterdam,NL,Netherlands,Plantage Middenlaan 48,Amsterdam Netherlands,http://lancasteramsterdamhotel.com/,52.3659,4.91305,Amsterdam,0.6866704009136347
157,Eden Rembrandt Square Hotel,4.0,65,Amsterdam,NL,Netherlands,Amstelstraat 17,Amsterdam Netherlands,http://www.edenrembrandtsquarehotel.com/nl/overview.aspx,52.3662,4.898619999999999,Amsterdam,0.39077959566836323
158,Elandsgracht Apartment,1.0,342,Amsterdam,NL,Netherlands,Elandsgracht 110,Amsterdam Netherlands,,52.3695,4.87971,Amsterdam,1.6333049776039694
159,Emma Apartments Amsterdam,3.0,181,Amsterdam,NL,Netherlands,Keizersgracht,Amsterdam Netherlands,http://www.hotelpascheramsterdam.com/emma-apartments-cheap-hotel-in-amsterdam/,52.3706,4.88449,Amsterdam,1.3311900752741586
160,European Apartments Reservations,2.0,75,Amsterdam,NL,Netherlands,Holendrechtstraat,Amsterdam Netherlands,http://www.europeanexplorer.com/apartment_accommodation.htm,52.3485,4.90862,Amsterdam,2.195319079258473
161,Eva Apartments Amsterdam,4.0,101,Amsterdam,NL,Netherlands,Nieuwezijds Voorburgwal 140,Amsterdam Netherlands,http://www.amsterdamaparthotels.com/properties/2205.htm,52.3749,4.89163,Amsterdam,1.1191749545033236
162,Falcon Plaza Hotel,3.0,51,Amsterdam,NL,Netherlands,Valkenburgerstraat 72,Amsterdam Netherlands,http://www.falconplaza.nl/,52.37,4.90785,Amsterdam,0.36828487555900413
163,Flower Market Apartment,2.0,323,Amsterdam,NL,Netherlands,Kerkstraat 248,Amsterdam Netherlands,,52.3628,4.89269,Amsterdam,0.9387104923609721
164,Flying Monkey Apartment Amsterdam,1.0,159,Amsterdam,NL,Netherlands,Prins Hendrikkade 102,Amsterdam Netherlands,,52.3755,4.90298,Amsterdam,0.8372419714409189
165,France Hotel Amsterdam,3.0,62,Amsterdam,NL,Netherlands,Oudezijds Kolk 11,Amsterdam Netherlands,http://france-hotel-amsterdam.h-rez.com/,52.3764,4.90198,Amsterdam,0.9426254515455911
166,Frans Halshuis,3.0,107,Amsterdam,NL,Netherlands,Frans Halsstraat 74,Amsterdam Netherlands,,52.3558,4.88857,Amsterdam,1.6973963965676702
167,Frederik Park House,1.0,251,Amsterdam,NL,Netherlands,Frederiksplein 22,Amsterdam Netherlands,http://www.frederikparkhouse.com,52.3608,4.8984,Amsterdam,0.8733268144567459
168,Frisco Inn Bar Hotel,1.0,88,Amsterdam,NL,Netherlands,Beursstraat 5,Amsterdam Netherlands,http://www.friscoinn.com/,52.3753,4.89725,Amsterdam,0.9205724604478845
169,Funky Chicken,2.5,184,Amsterdam,NL,Netherlands,Spuistraat 90,Amsterdam Netherlands,http://funkychickin.com/,52.3753,4.89113,Amsterdam,1.174537131677341
170,Grand Hotel Amrath Amsterdam,5.0,174,Amsterdam,NL,Netherlands,Prins Hendrikkade 108,Amsterdam Netherlands,http://www.amrathamsterdam.com,52.3749,4.90391,Amsterdam,0.7699065395944118
171,Groupstay Keizersgracht,2.5,337,Amsterdam,NL,Netherlands,Keizersgracht 37,Amsterdam Netherlands,,52.3787,4.889419999999999,Amsterdam,1.5327576597047932
172,Hampshire Hotel - Beethoven,3.0,52,Amsterdam,NL,Netherlands,Beethovenstraat 43,Amsterdam Netherlands,http://www.hampshire-hotels.com,52.3483,4.877190000000001,Amsterdam,2.8329468538317317
173,Hampshire Hotel - Theatre District Amsterdam,3.0,61,Amsterdam,NL,Netherlands,Nassaukade 387-390,Amsterdam Netherlands,http://hampshirehoteltheatredistrict.com/,52.3644,4.878480000000001,Amsterdam,1.7543875026018603
174,Hampshire Inn-Prinsengracht,3.0,70,Amsterdam,NL,Netherlands,Prinsengracht 1015,Amsterdam Netherlands,,52.3619,4.89424,Amsterdam,0.9281885532213736
175,Hans Brinker Budget Hotel,1.0,80,Amsterdam,NL,Netherlands,Kerkstraat 136-138,Amsterdam Netherlands,http://www.hans-brinker.com,52.3636,4.88816,Amsterdam,1.1569817373967186
176,Harmony Apartment,2.0,225,Amsterdam,NL,Netherlands,Lange Leidsedwarsstraat 93-1,Amsterdam Netherlands,,52.3632,4.8857800000000005,Amsterdam,1.323052051180139
177,Hem Hotel Amsterdam,3.0,30,Amsterdam,NL,Netherlands,Voorburgstraat 250,Amsterdam Netherlands,http://www.hemhotels.nl/nl/index.html,52.3486,4.84278,Amsterdam,4.66903504679722
178,Hendrick de Keyser Apartment,3.5,291,Amsterdam,NL,Netherlands,Keizersgracht 582 Amsterdam-Centrum,Amsterdam Netherlands,,52.3643,4.888809999999999,Amsterdam,1.0852272832951575
179,Herengracht Apartment,1.0,289,Amsterdam,NL,Netherlands,Huidenstraat 21,Amsterdam Netherlands,,52.3689,4.88547,Amsterdam,1.2364607203829165
180,Herengracht Canal Studio,3.0,180,Amsterdam,NL,Netherlands,Herengracht 359,Amsterdam Netherlands,,52.369,4.8871,Amsterdam,1.1269120323285187
181,Hilton Amsterdam,5.0,179,Amsterdam,NL,Netherlands,Apollolaan 138,Amsterdam Netherlands,http://www1.hilton.com/en_US/hi/hotel/AMSHITW-Hilton-Amsterdam-/index.do,52.3514,4.87193,Amsterdam,2.8371164366995996
182,Hilton Amsterdam Airport Schiphol,4.0,155,Amsterdam,NL,Netherlands,Schiphol Boulevard 701,Amsterdam Netherlands,http://www1.hilton.com/en_US/hi/hotel/SPLHITW-Hilton-Amsterdam-Airport-Schiphol-hotel-/index.do,52.3068,4.75609,Amsterdam,12.140377355593767
183,Holiday in the heart of Amsterdam,2.0,174,Amsterdam,NL,Netherlands,Nieuwezijdsvoorburgwal 177,Amsterdam Netherlands,http://www.holidaylettings.co.uk/amsterdam/bedrooms.2/,52.372,4.89084,Amsterdam,0.9748957568568141
184,Holiday Inn Amsterdam,4.0,126,Amsterdam,NL,Netherlands,De Boelelaan 2,Amsterdam Netherlands,,52.3348,4.88926,Amsterdam,3.818971773517094
185,Holiday Inn Express Amsterdam Sloterdijk Station,3.0,102,Amsterdam,NL,Netherlands,Orlyplein 141,Amsterdam Netherlands,http://www.hiexpress.com,52.3878,4.83691,Amsterdam,5.046090635868463
186,Home & Away Apartments,3.0,96,Amsterdam,NL,Netherlands,Korte Lijnbaansteeg 1,Amsterdam Netherlands,,52.3761,4.89288,Amsterdam,1.1596390707843738
187,Hotel 83 Amsterdam,2.0,54,Amsterdam,NL,Netherlands,Oudezijds Achterburgwal 83,Amsterdam Netherlands,http://www.hotel-flipper-amsterdam.com/,52.3727,4.89841,Amsterdam,0.6312304906203783
188,Hotel Aadam Wilhelmina Amsterdam,2.0,50,Amsterdam,NL,Netherlands,Koninginneweg 169,Amsterdam Netherlands,http://www.hotel-aadam-wilhelmina.nl/,52.3529,4.86182,Amsterdam,3.3020602304368536
189,Hotel Aalders,3.0,74,Amsterdam,NL,Netherlands,Jan Luykenstraat 13-15,Amsterdam Netherlands,http://www.hotelaalders.nl,52.3598,4.88129,Amsterdam,1.7694739531301116
190,Hotel Abba,1.0,45,Amsterdam,NL,Netherlands,Overtoom 118-122,Amsterdam Netherlands,http://www.hotelanna.info,52.3627,4.8747300000000005,Amsterdam,2.050060449536196
191,Hotel Acacia Amsterdam,1.0,71,Amsterdam,NL,Netherlands,Lindengracht 251,Amsterdam Netherlands,http://www.hotelacacia.nl/,52.3794,4.88049,Amsterdam,2.0205174488258604
192,Hotel Adolesce,2.0,102,Amsterdam,NL,Netherlands,Nieuwe Keizersgracht 26,Amsterdam Netherlands,http://www.adolesce.nl,52.3649,4.9051800000000005,Amsterdam,0.36047759811395214
193,Hotel Agora Amsterdam,2.0,56,Amsterdam,NL,Netherlands,Singel 462,Amsterdam Netherlands,http://www.amsterdamnetherlandshotels.com/,52.3674,4.88917,Amsterdam,0.9824083963929345
194,Hotel Ajax,2.0,54,Amsterdam,NL,Netherlands,Rokin 104,Amsterdam Netherlands,http://www.hotelajax.nl,52.3693,4.89193,Amsterdam,0.805657027069833
195,Hotel Alfa Plantage,3.0,63,Amsterdam,NL,Netherlands,Plantage Middenlaan 26,Amsterdam Netherlands,http://hotelplantage.nl/,52.3665,4.91141,Amsterdam,0.5595364477945396
196,Hotel Allure,3.0,61,Amsterdam,NL,Netherlands,Sarphatistraat 117,Amsterdam Netherlands,http://www.hotelallure.com,52.3618,4.91076,Amsterdam,0.844987606123278
197,Hotel Amsterdam De Roode Leeuw,4.0,119,Amsterdam,NL,Netherlands,Damrak 93-94,Amsterdam Netherlands,http://www.hotelamsterdam.nl,52.3737,4.89374,Amsterdam,0.9230235778283177
198,Hotel Apple Inn,2.0,70,Amsterdam,NL,Netherlands,Koninginneweg 93,Amsterdam Netherlands,http://www.apple-inn.nl/,52.3539,4.8657,Amsterdam,3.0180899129557064
199,Hotel Arena Amsterdam,4.0,110,Amsterdam,NL,Netherlands,S Gravesandestraat 51,Amsterdam Netherlands,http://www.hotelarena.nl/,52.3614,4.91533,Amsterdam,1.0860265103174311
200,Hotel Aspen Amsterdam,1.0,50,Amsterdam,NL,Netherlands,Raadhuisstraat 31,Amsterdam Netherlands,http://www.hotelaspen.nl/,52.3735,4.88647,Amsterdam,1.315972383282568
201,Hotel Asterisk,2.0,61,Amsterdam,NL,Netherlands,Den Texstraat 16,Amsterdam Netherlands,http://www.asteriskhotel.nl/,52.3589,4.89348,Amsterdam,1.2220637638734408
202,Hotel Atlanta Amsterdam,2.0,60,Amsterdam,NL,Netherlands,Rembrandsplein 8-10,Amsterdam Netherlands,http://www.atlantahotel.nl/,52.36600000000001,4.89583,Amsterdam,0.5710397748549679
203,Hotel Atlas Amsterdam,3.0,78,Amsterdam,NL,Netherlands,Van Eeghenstraat 64,Amsterdam Netherlands,http://www.hotelatlas.nl/,52.3576,4.87378,Amsterdam,2.3347434088113723
204,Hotel Belga,3.0,47,Amsterdam,NL,Netherlands,Hartenstraat 8,Amsterdam Netherlands,http://www.hotelbelga.nl,52.3723,4.8865,Amsterdam,1.2573735364245628
205,Hotel Beursstraat,1.0,70,Amsterdam,NL,Netherlands,Beursstraat 7,Amsterdam Netherlands,http://www.hotelbeursstraat.nl,52.3748,4.89671,Amsterdam,0.8904717446948449
206,Hotel Blyss,3.0,57,Amsterdam,NL,Netherlands,Vondelstraat 74-78,Amsterdam Netherlands,http://www.hotelblyss.nl,52.3618,4.87565,Amsterdam,2.0219795108647083
207,Hotel Bronckhorst,3.0,58,Amsterdam,NL,Netherlands,Bronckhorststraat 14,Amsterdam Netherlands,http://www.hotelbronckhorst.nl,52.3531,4.8811,Amsterdam,2.2549011241216883
208,Hotel Cafe Corner House,1.0,46,Amsterdam,NL,Netherlands,Nieuwezijds Voorburgwal 119 121,Amsterdam Netherlands,http://www.hotelcornerhouse.nl/hotel.htm,52.3744,4.89141,Amsterdam,1.0929787565887084
209,Hotel Casa 400,3.0,81,Amsterdam,NL,Netherlands,James Wattstraat 75NL 1097 DL Amsterdam Netherlands,Amsterdam Netherlands,http://www.hotelcasa400.nl/,52.3491,4.9211800000000006,Amsterdam,2.4199946453779457
210,Hotel CC,3.0,94,Amsterdam,NL,Netherlands,Warmoesstraat 42,Amsterdam Netherlands,http://www.hotel83.com,52.3756,4.89855,Amsterdam,0.9135849106142099
211,Hotel Central Park Amsterdam,3.0,52,Amsterdam,NL,Netherlands,Waldeck Pyrmontlaan 9,Amsterdam Netherlands,http://www.parkhotel.nl/,52.3539,4.85755,Amsterdam,3.5044583925503177
212,Hotel Citadel,3.0,73,Amsterdam,NL,Netherlands,Nieuwezijdsvoorburgwal 98-100,Amsterdam Netherlands,http://www.centrehotels.nl,52.3756,4.892519999999999,Amsterdam,1.1329831468414513
213,Hotel City Garden Amsterdam,3.0,39,Amsterdam,NL,Netherlands,P C Hooftstraat 162,Amsterdam Netherlands,http://www.win-hotels.com,52.3593,4.87711,Amsterdam,2.044641180669262
214,Hotel Continental Amsterdam,1.0,72,Amsterdam,NL,Netherlands,Damrak 40-41,Amsterdam Netherlands,http://www.win-hotels.com,52.3757,4.89639,Amsterdam,0.9877679143829569
215,Hotel Cordial,2.0,61,Amsterdam,NL,Netherlands,Rokin 62-64,Amsterdam Netherlands,http://www.cordialhotel.nl/,52.3706,4.89243,Amsterdam,0.8121247840669135
216,Hotel Croydon,1.0,15,Amsterdam,NL,Netherlands,Warmoesstraat 75,Amsterdam Netherlands,http://www.hostelcroydon.com/,52.375,4.89775,Amsterdam,0.8752727684227848
217,Hotel Crystal Amsterdam,2.0,45,Amsterdam,NL,Netherlands,2e Helmerstraat,Amsterdam Netherlands,http://www.amsterdam-hotels-guide.com/amsterdam-crystal.htm,52.365,4.87838,Amsterdam,1.7470997022533226
218,Hotel De Gerstekorrel,2.0,53,Amsterdam,NL,Netherlands,Damstraat 22-24,Amsterdam Netherlands,http://www.gerstekorrel.com,52.3722,4.894880000000001,Amsterdam,0.7547718405593979
219,Hotel De Koopermoolen,2.0,71,Amsterdam,NL,Netherlands,Warmoesstraat 5,Amsterdam Netherlands,http://www.amsterdam-hotels-guide.com/amsterdam-koopermolen.htm,52.3761,4.89942,Amsterdam,0.9460932120179714
220,Hotel De Leurope Amsterdam,5.0,312,Amsterdam,NL,Netherlands,Nieuwe Doelenstraat 2-14,Amsterdam Netherlands,http://www.leurope.nl/,52.3679,4.8948,Amsterdam,0.5968435739118488
221,Hotel De Looier,3.0,53,Amsterdam,NL,Netherlands,3e Looiersdwarsstraat 75,Amsterdam Netherlands,http://www.hoteldelooier.com/,52.3681,4.87974,Amsterdam,1.62260697587591
222,Hotel De Mallemoolen,1.0,63,Amsterdam,NL,Netherlands,Warmoesstraat 7,Amsterdam Netherlands,http://amsterdam.hotelguide.net/,52.3761,4.89936,Amsterdam,0.9473195328310227
223,Hotel De Munck,2.0,98,Amsterdam,NL,Netherlands,Achtergracht 3,Amsterdam Netherlands,http://www.hoteldemunck.com,52.3616,4.90244,Amsterdam,0.7145034180028615
224,Hotel De Paris Amsterdam,3.0,44,Amsterdam,NL,Netherlands,Marnixstraat 372,Amsterdam Netherlands,http://www.hoteldeparis.nl,52.3657,4.87988,Amsterdam,1.6329678721143417
225,Hotel de Stern Amsterdam,1.0,64,Amsterdam,NL,Netherlands,Utrechtsestraat 18,Amsterdam Netherlands,http://www.hotelamsterdam.nl/,52.3654,4.89772,Amsterdam,0.4909281426820291
226,Hotel de Westertoren,1.0,64,Amsterdam,NL,Netherlands,Raadhuisstraat 35 B,Amsterdam Netherlands,http://www.hotelwestertoren.nl,52.3736,4.88629,Amsterdam,1.3320119660323513
227,Hotel Des Arts Amsterdam,2.0,133,Amsterdam,NL,Netherlands,Rokin 154-156,Amsterdam Netherlands,http://www.hoteldesarts.nl/,52.3679,4.89291,Amsterdam,0.7255650598813868
228,Hotel Di-Ann,2.0,61,Amsterdam,NL,Netherlands,Raadhuisstraat 27,Amsterdam Netherlands,,52.3734,4.88661,Amsterdam,1.302360270015349
229,Hotel Downtown Amsterdam,2.0,21,Amsterdam,NL,Netherlands,Kerkstraat 25,Amsterdam Netherlands,http://www.hoteldowntown.nl/,52.3658,4.8848,Amsterdam,1.30084410606534
230,Hotel Estherea,4.0,124,Amsterdam,NL,Netherlands,Singel 303-309,Amsterdam Netherlands,http://www.estherea.nl,52.3706,4.88849,Amsterdam,1.0670004922954814
231,Hotel Europa 92,3.0,57,Amsterdam,NL,Netherlands,1e Constatijn Huygensstraat 103-107,Amsterdam Netherlands,http://www.europa92.nl,52.3626,4.87552,Amsterdam,2.0018723968915944
232,Hotel Fita,3.0,119,Amsterdam,NL,Netherlands,Jan Luykenstraat 37,Amsterdam Netherlands,http://www.fita.nl,52.3592,4.87975,Amsterdam,1.8937916845904217
233,Hotel Flipper,2.0,31,Amsterdam,NL,Netherlands,Borssenburgstraat 5,Amsterdam Netherlands,http://www.hotel-flipper-amsterdam.com/,52.349,4.90872,Amsterdam,2.1414969682942337
234,Hotel Galerij,1.0,50,Amsterdam,NL,Netherlands,Raadhuisstraat 43,Amsterdam Netherlands,http://www.hotelgalerij.nl/,52.3737,4.8859699999999995,Amsterdam,1.3564787817640471
235,Hotel Heemskerk,3.0,210,Amsterdam,NL,Netherlands,Jan Willem Brouwersstraat 25,Amsterdam Netherlands,,52.3557,4.878,Amsterdam,2.2137458851904515
236,Hotel Hestia,3.0,71,Amsterdam,NL,Netherlands,Roemer Visscherstraat 7,Amsterdam Netherlands,http://www.hotel-hestia.nl,52.3616,4.87825,Amsterdam,1.864791361502551
237,Hotel Hortus,1.0,50,Amsterdam,NL,Netherlands,Plantage Parklaan 8,Amsterdam Netherlands,http://www.hotelhortus.com,52.367,4.90919,Amsterdam,0.3987259167703104
238,Hotel Imperial Amsterdam,2.0,122,Amsterdam,NL,Netherlands,Thorbeckeplein 9,Amsterdam Netherlands,http://www.hotels-amsterdam-netherlands-hotels.com/2-star/,52.3653,4.895969999999999,Amsterdam,0.5971618144280859
239,Hotel Iris Amsterdam,2.0,61,Amsterdam,NL,Netherlands,Sarphatikade 17,Amsterdam Netherlands,http://www.amsterdamnetherlandshotels.com/getting-to-from/,52.3589,4.90255,Amsterdam,1.0131938588920217
240,Hotel JL No76,4.0,108,Amsterdam,NL,Netherlands,Jan Luijkenstraat 76,Amsterdam Netherlands,http://vondelhotels.com,52.3596,4.88016,Amsterdam,1.8470427779820615
241,Hotel Kap,2.0,56,Amsterdam,NL,Netherlands,Den Texstraat 5b,Amsterdam Netherlands,http://www.kaphotel.nl,52.3589,4.89319,Amsterdam,1.2332734796507672
242,Hotel La Boheme Amsterdam,2.0,83,Amsterdam,NL,Netherlands,Marnixstraat 415,Amsterdam Netherlands,http://www.la-boheme-amsterdam.com/,52.3641,4.88163,Amsterdam,1.5551595128070033
243,Hotel Luxer,3.0,89,Amsterdam,NL,Netherlands,Warmoesstraat 11,Amsterdam Netherlands,http://www.hotelluxer.nl,52.3761,4.89919,Amsterdam,0.9508808926910678
244,Hotel Manofa,1.0,47,Amsterdam,NL,Netherlands,Damrak 47-48,Amsterdam Netherlands,http://manofa-hotel.com,52.3754,4.89599,Amsterdam,0.9730543352673552
245,Hotel Max Amsterdam,2.0,49,Amsterdam,NL,Netherlands,Hemonystraat 7,Amsterdam Netherlands,http://www.amsterdam-hotelguide.net/,52.358000000000004,4.9019699999999995,Amsterdam,1.1162719409862674
246,Hotel Monopole,2.0,79,Amsterdam,NL,Netherlands,Amstel 60,Amsterdam Netherlands,http://www.hotel-monopole.nl/,52.367,4.89628,Amsterdam,0.5079166997292761
247,Hotel Mozart Amsterdam,3.0,55,Amsterdam,NL,Netherlands,Prinsengracht 518 - 520,Amsterdam Netherlands,http://hotelmozart.nl/,52.3637,4.88609,Amsterdam,1.2820297115483368
248,Hotel Multatuli,3.0,68,Amsterdam,NL,Netherlands,Prins Hendrikkade 12,Amsterdam Netherlands,http://www.multatulihotel.nl/,52.379,4.89574,Amsterdam,1.3365051382279451
249,Hotel Nes,3.0,79,Amsterdam,NL,Netherlands,Kloveniersburgwal 137-139,Amsterdam Netherlands,http://www.hotelnes.nl/,52.368,4.89621,Amsterdam,0.5007322639730984
250,Hotel Neutraal,1.0,61,Amsterdam,NL,Netherlands,Damrak 8,Amsterdam Netherlands,http://www.hotelneutraal.nl,52.3768,4.897880000000001,Amsterdam,1.0545187469568322
251,Hotel Notting Hill,4.0,104,Amsterdam,NL,Netherlands,Westeinde 26,Amsterdam Netherlands,http://www.hotelnottinghill.nl,52.3584,4.89878,Amsterdam,1.115114673761848
252,Hotel Old Quarter,2.0,69,Amsterdam,NL,Netherlands,Warmoestraat 22,Amsterdam Netherlands,http://www.oldquarter.com,52.3759,4.89891,Amsterdam,0.9360521491571033
253,Hotel Patou,3.0,72,Amsterdam,NL,Netherlands,P.C Hooftstraat 63,Amsterdam Netherlands,http://www.hotelpatou.nl,52.3604,4.8811599999999995,Amsterdam,1.7437910647573205
254,Hotel Pax Amsterdam,1.0,58,Amsterdam,NL,Netherlands,Raadhuisstraat 37 B,Amsterdam Netherlands,http://www.our-amsterdam-hotels.com/forview/netherlands/amsterdam/rembrand-classic-hotel.html,52.3736,4.88618,Amsterdam,1.3386329980964282
255,Hotel Piet Hein,3.0,89,Amsterdam,NL,Netherlands,Vossiustraat 52-53,Amsterdam Netherlands,http://www.hotelpiethein.com,52.3601,4.877680000000001,Amsterdam,1.9692536187142926
256,Hotel Plantage,2.0,41,Amsterdam,NL,Netherlands,Plantage Kerklaan 25-A,Amsterdam Netherlands,http://www.hotelplantage.nl,52.3666,4.9118900000000005,Amsterdam,0.5878394037985214
257,Hotel Princess Amsterdam,1.0,19,Amsterdam,NL,Netherlands,Overtoom 80,Amsterdam Netherlands,http://hotelprincessamsterdamamsterdam.priorguest.com/zh,52.3628,4.87536,Amsterdam,2.0057565046854475
258,Hotel Prins Hendrik,3.0,100,Amsterdam,NL,Netherlands,Prins Hendrikkade 52-57,Amsterdam Netherlands,http://www.hotel-prinshendrik.nl,52.3766,4.89964,Amsterdam,0.9952123787415446
259,Hotel Pulitzer a Luxury Collection Hotel,5.0,225,Amsterdam,NL,Netherlands,Prinsengracht 315-331,Amsterdam Netherlands,http://www.pulitzeramsterdam.com/,52.373000000000005,4.88323,Amsterdam,1.493006024017696
260,Hotel Ramenas,1.0,54,Amsterdam,NL,Netherlands,Haarlemmerdijk 61,Amsterdam Netherlands,http://www.hotelramenas.nl,52.3825,4.88754,Amsterdam,1.9492163052034945
261,Hotel Rembrandt Amsterdam,2.0,94,Amsterdam,NL,Netherlands,Plantage Middenlaan 17,Amsterdam Netherlands,http://www.amsterdamhotelsweb.com/,52.3669,4.910480000000001,Amsterdam,0.4864559370787641
262,Hotel Restaurant Larende,3.0,71,Amsterdam,NL,Netherlands,De Clercqstraat 115,Amsterdam Netherlands,http://www.hotellarende.com,52.3698,4.86604,Amsterdam,2.563633889670841
263,Hotel RobertRamon,3.0,83,Amsterdam,NL,Netherlands,P C Hooftstraat 24-28,Amsterdam Netherlands,http://www.smit.com,52.3609,4.88316,Amsterdam,1.5977303081804812
264,Hotel Roemer,4.0,121,Amsterdam,NL,Netherlands,Roemer Visscherstraat 10,Amsterdam Netherlands,http://www.vondelhotels.com,52.3618,4.87805,Amsterdam,1.8690834955134892
265,Hotel Sander Amsterdam,3.0,63,Amsterdam,NL,Netherlands,Jacob Obrechtstraat 69,Amsterdam Netherlands,http://www.hotel-sander.nl/,52.354,4.87679,Amsterdam,2.397414733058595
266,Hotel Savoy Amsterdam,4.0,71,Amsterdam,NL,Netherlands,Ferdinand Bolstraat 194,Amsterdam Netherlands,http://www.savoyhotel.nl,52.3496,4.8913400000000005,Amsterdam,2.208647894846448
267,Hotel Schroder Amsterdam,1.0,38,Amsterdam,NL,Netherlands,Haarlemmerdijk 48B,Amsterdam Netherlands,http://www.hostels-amsterdam.nl/hotels.php,52.3823,4.88811,Amsterdam,1.9091487623139518
268,Hotel Sebastians Amsterdam,3.0,79,Amsterdam,NL,Netherlands,Keizersgracht 15,Amsterdam Netherlands,http://www.hotelpascheramsterdam.com/,52.3791,4.88985,Amsterdam,1.5498106427435574
269,Hotel Seven one Seven,4.0,433,Amsterdam,NL,Netherlands,Prinsengracht 717,Amsterdam Netherlands,http://www.sevenwondersproject.org/,52.3648,4.88509,Amsterdam,1.307137349226822
270,Hotel Sint Nicolaas,3.0,140,Amsterdam,NL,Netherlands,Spuistraat 1a,Amsterdam Netherlands,http://www.hotelnicolaas.nl,52.3774,4.894419999999999,Amsterdam,1.2187471362508981
271,Hotel Synopsis,3.0,238,Amsterdam,NL,Netherlands,Nieuwe Keizersgracht 22-A,Amsterdam Netherlands,http://www.synopsishotel.com/,52.365,4.90534,Amsterdam,0.3534853591672554
272,Hotel The Crown Amsterdam,1.0,50,Amsterdam,NL,Netherlands,O.Z. Voorburgwal 21,Amsterdam Netherlands,http://www.hotelthecrown.com/,52.3749,4.899830000000001,Amsterdam,0.810418944526887
273,Hotel The Exchange,3.0,94,Amsterdam,NL,Netherlands,Damrak 50,Amsterdam Netherlands,http://www.amsterdamnetherlandshotels.com/,52.3754,4.895630000000001,Amsterdam,0.986267294362001
274,Hotel the Golden Bear,1.0,87,Amsterdam,NL,Netherlands,Kerkstraat 37,Amsterdam Netherlands,http://www.goldenbear.nl,52.3655,4.885269999999999,Amsterdam,1.2762244316670766
275,Hotel The Rookies,2.0,55,Amsterdam,NL,Netherlands,Korte leidsedwarsstraat 147,Amsterdam Netherlands,http://www.rookies.nl/,52.363,4.88514,Amsterdam,1.3719224775095296
276,Hotel Torenzicht,1.0,56,Amsterdam,NL,Netherlands,Oudezijds Achterburgwal 93,Amsterdam Netherlands,http://www.torenzicht.com,52.3726,4.8981900000000005,Amsterdam,0.6305849230034032
277,Hotel Tourist Inn Amsterdam,1.0,26,Amsterdam,NL,Netherlands,Spuistraat 52,Amsterdam Netherlands,http://www.tourist-inn.com/en/,52.3761,4.89246,Amsterdam,1.1777946455086403
278,Hotel V Frederiksplein,3.0,102,Amsterdam,NL,Netherlands,Weteringschans 136,Amsterdam Netherlands,http://www.hotelv.nl/hotel_amsterdam/home/,52.3593,4.89781,Amsterdam,1.0427403509365016
279,Hotel Van Gogh,3.0,66,Amsterdam,NL,Netherlands,Van De Veldestraat 5,Amsterdam Netherlands,http://www.hotelvangogh.nl,52.358999999999995,4.88009,Amsterdam,1.8856991469266053
280,Hotel van Onna,1.0,63,Amsterdam,NL,Netherlands,Bloemgracht 104,Amsterdam Netherlands,http://www.hotelvanonna.com,52.3747,4.8803,Amsterdam,1.7516917901850277
281,Hotel Verdi Amsterdam,2.0,68,Amsterdam,NL,Netherlands,Wanningstraat 9,Amsterdam Netherlands,http://www.edenamsterdamhotel.com/,52.3567,4.87749,Amsterdam,2.1750810886629104
282,Hotel Victorie,2.0,57,Amsterdam,NL,Netherlands,Victorieplein 42,Amsterdam Netherlands,http://www.hotelvictorie.nl,52.3467,4.90285,Amsterdam,2.3688878945534158
283,Hotel Vijaya,1.0,55,Amsterdam,NL,Netherlands,Oudezijds Voorburgwal 44,Amsterdam Netherlands,http://hotelvijaya.com/,52.375,4.89933,Amsterdam,0.832164126463638
284,Hotel Vivaldi Amsterdam,2.0,39,Amsterdam,NL,Netherlands,Stadhouderskade 76,Amsterdam Netherlands,http://vivaldi-hotel-amsterdam.h-rez.com/,52.3583,4.88972,Amsterdam,1.431883123095607
285,Hotel Vondel,4.0,90,Amsterdam,NL,Netherlands,Vondelstraat 26,Amsterdam Netherlands,http://www.vondelhotels.com/,52.3627,4.87854,Amsterdam,1.8029745099201784
286,Hotel Washington Amsterdam,2.0,40,Amsterdam,NL,Netherlands,Frans van Mierisstraat 10,Amsterdam Netherlands,http://loginamsterdam.com/,52.3549,4.88387,Amsterdam,1.97971153507736
287,Hotel Zandbergen,3.0,115,Amsterdam,NL,Netherlands,Willemsparkweg 205,Amsterdam Netherlands,http://www.hotel-zandbergen.com/index.html,52.3555,4.869,Amsterdam,2.7337073534755887
288,Hotelboat Allure,1.0,105,Amsterdam,NL,Netherlands,Oosterdok steiger 2,Amsterdam Netherlands,,52.3744,4.91043,Amsterdam,0.8535245175238396
289,Hotelboat IDEAAL Amsterdam,2.0,110,Amsterdam,NL,Netherlands,Amsteldijk 729,Amsterdam Netherlands,http://www.hotelboatideaal.nl/,52.3513,4.90935,Amsterdam,1.897953270916444
290,Hotelboat Zwaan,2.0,81,Amsterdam,NL,Netherlands,Oosterdok steiger 5,Amsterdam Netherlands,http://www.hotelbootzwaan.nl,52.3734,4.91035,Amsterdam,0.7595685421731783
291,Htel Amsterdam,3.0,252,Amsterdam,NL,Netherlands,Teilingen 45,Amsterdam Netherlands,http://www.hotels-amsterdam-netherlands-hotels.com/,52.3275,4.87175,Amsterdam,4.999290153224165
292,Hugo Apartments,3.0,395,Amsterdam,NL,Netherlands,Keizersgracht,Amsterdam Netherlands,,52.3759,4.88678,Amsterdam,1.4429622200647818
293,I Stay Short B&B,1.0,105,Amsterdam,NL,Netherlands,Keizersgracht 707-2,Amsterdam Netherlands,http://istayshort.com/,52.364,4.89799,Amsterdam,0.5835948770777832
294,Ibis Amsterdam Centre,3.0,111,Amsterdam,NL,Netherlands,Stationsplein 49,Amsterdam Netherlands,http://www.ibishotel.com/gb/hotel-1556-ibis-amsterdam-centre/index.shtml,52.3795,4.89685,Amsterdam,1.3604828285337283
295,Ibis Amsterdam City Stopera,3.0,91,Amsterdam,NL,Netherlands,Valkenburgerstraat 68,Amsterdam Netherlands,http://www.accorhotels.com,52.3701,4.90794,Amsterdam,0.3799577155868409
296,Ibis Amsterdam City West,3.0,76,Amsterdam,NL,Netherlands,Transformatorweg 36,Amsterdam Netherlands,http://www.ibishotel.com/gb/hotel-5140-ibis-amsterdam-city-west/index.shtml,52.3922,4.84883,Amsterdam,4.598999590864312
297,Ijplein Bed & Breakfast,1.0,61,Amsterdam,NL,Netherlands,Motorwal 189,Amsterdam Netherlands,http://www.bedandbreakfastworld.com/netherlands/amsterdam/ijplein-bed-and-breakfast/44716,52.38399999999999,4.9183,Amsterdam,2.0453516735837596
298,Il Giardino Hotel,2.0,95,Amsterdam,NL,Netherlands,Prins Hendrikkade 97-98,Amsterdam Netherlands,,52.3761,4.90276,Amsterdam,0.9047176624886141
299,Ilma Yoga House Bed & Breakfast,1.0,69,Amsterdam,NL,Netherlands,Leerdamhof 471,Amsterdam Netherlands,http://www.ilma-yoga-house.nl/,52.3056,4.9785,Amsterdam,8.61849912737154
300,Inner Amsterdam,2.0,20,Amsterdam,NL,Netherlands,Wanningstraat 1,Amsterdam Netherlands,http://www.innerhotel.nl/,52.357,4.87725,Amsterdam,2.1694650916387785
301,Inntel Hotels Amsterdam Centre,4.0,116,Amsterdam,NL,Netherlands,Nieuwezijdskolk 19,Amsterdam Netherlands,http://www.amsterdam-hotels-guide.com/amsterdam-gt-centre.htm,52.3763,4.89454,Amsterdam,1.1107380229941526
302,InterContinental Amstel Amsterdam,5.0,332,Amsterdam,NL,Netherlands,Professor Tulpplein 1,Amsterdam Netherlands,,52.3603,4.90532,Amsterdam,0.8634156583206635
303,Intermezzo Apartment,1.0,167,Amsterdam,NL,Netherlands,De Lairessestraat 162,Amsterdam Netherlands,www.amsterdamcityapartments.com,52.3525,4.86684,Amsterdam,3.037603670188223
304,ITC Hotel,2.0,32,Amsterdam,NL,Netherlands,Prinsengracht 1051,Amsterdam Netherlands,http://www.itc-hotel.com,52.3622,4.8985,Amsterdam,0.730167846558897
305,Jackie O Bed & Breakfast,3.0,162,Amsterdam,NL,Netherlands,Bloemgracht 73,Amsterdam Netherlands,http://www.jackie-o.nl/location.html,52.3745,4.88021,Amsterdam,1.7478928853530802
306,Jordaan Apartments Amsterdam Canal View,4.0,204,Amsterdam,NL,Netherlands,Korte Prinsengracht 42,Amsterdam Netherlands,http://www.canalapartments.com/,52.3812,4.88866,Amsterdam,1.7867469768651167
307,Jordaan Residence,1.0,337,Amsterdam,NL,Netherlands,Oude Looiersstraat 52,Amsterdam Netherlands,,52.369,4.880730000000001,Amsterdam,1.559209504172129
308,Jupiter Hotel Amsterdam,3.0,54,Amsterdam,NL,Netherlands,Tweede Helmersstraat 14,Amsterdam Netherlands,http://www.jupiterhotel.nl/,52.3649,4.87793,Amsterdam,1.7793172640269015
309,Keizersgracht Apartments Amsterdam,1.0,74,Amsterdam,NL,Netherlands,Keizersgracht 760,Amsterdam Netherlands,http://www.getreadyamsterdam.com/,52.3636,4.8981,Amsterdam,0.6135153950957604
310,King Hotel Amsterdam,2.0,102,Amsterdam,NL,Netherlands,Leidsekade 85-86,Amsterdam Netherlands,http://www.hotel-king.nl/,52.3642,4.87994,Amsterdam,1.663194325184982
311,Kooyk Hotel,1.0,49,Amsterdam,NL,Netherlands,Leidsekade 82,Amsterdam Netherlands,http://www.kooykhotel.nl/,52.3644,4.8796800000000005,Amsterdam,1.6748914192756448
312,LArtiste Apartment,1.5,123,Amsterdam,NL,Netherlands,Van Ostadestraat 166hs,Amsterdam Netherlands,,52.3523,4.89353,Amsterdam,1.8742871491279487
313,La Remise,4.0,135,Amsterdam,NL,Netherlands,Noorderstraat 74,Amsterdam Netherlands,http://www.laremise.nl,52.361000000000004,4.89492,Amsterdam,0.9749344435794413
314,La Vie En Rose B&B,2.5,142,Amsterdam,NL,Netherlands,Nieuwezijds Voorburgwal 90b,Amsterdam Netherlands,http://www.amsterdamapartmentlavieenrose.com/,52.3758,4.89262,Amsterdam,1.1452796971656074
315,Le Grand Prince Apartment,1.0,434,Amsterdam,NL,Netherlands,Prinsengracht 766,Amsterdam Netherlands,,52.3616,4.89719,Amsterdam,0.8324927440361303
316,Leidseplein Apartment,3.0,306,Amsterdam,NL,Netherlands,Tweede Weteringdwarsstraat 51C Amsterdam-Centrum,Amsterdam Netherlands,www.beheerstaete.nl,52.3614,4.88985,Amsterdam,1.1870770791257772
317,Leidseplein Studio,1.0,173,Amsterdam,NL,Netherlands,Prinsengracht 440,Amsterdam Netherlands,,52.3651,4.88396,Amsterdam,1.3731960288927945
318,LHome Guest House,1.0,163,Amsterdam,NL,Netherlands,Tweede Weteringdwarsstraat 24,Amsterdam Netherlands,,52.3615,4.88855,Amsterdam,1.2514907350134648
319,Lloyd Hotel & Cultural Embassy Amsterdam,3.0,103,Amsterdam,NL,Netherlands,Oostelijke Handelskade 34,Amsterdam Netherlands,http://www.lloydhotel.com/,52.3743,4.9355199999999995,Amsterdam,2.2872961011585224
320,Maggys Bed and Breakfast,2.0,50,Amsterdam,NL,Netherlands,Martelaarsgracht 9,Amsterdam Netherlands,http://maggysbedandbreakfast.com/,52.3779,4.8966,Amsterdam,1.2009137903435103
321,Marnix Hotel,1.0,16,Amsterdam,NL,Netherlands,Marnixstraat 382,Amsterdam Netherlands,http://www.marnixhotel.com/,52.3654,4.8800300000000005,Amsterdam,1.6284435721483852
322,Marriott Amsterdam,5.0,232,Amsterdam,NL,Netherlands,Stadhouderskade 12,Amsterdam Netherlands,http://www.marriott.com/hotels/travel/amsrd-renaissance-amsterdam-hotel/,52.3625,4.8804099999999995,Amsterdam,1.6909790326241874
323,Mart Apartment,3.0,203,Amsterdam,NL,Netherlands,prinsengracht 529,Amsterdam Netherlands,,52.369,4.88293,Amsterdam,1.4097976404473294
324,Memphis EMB Hotel,4.0,106,Amsterdam,NL,Netherlands,De Lairessestraat 87,Amsterdam Netherlands,http://www.memphishotel.nl,52.3537,4.87215,Amsterdam,2.6656203895970667
325,Mercure Amsterdam Airport,4.0,80,Amsterdam,NL,Netherlands,Oude Haagseweg 20,Amsterdam Netherlands,http://www.mercure.com/gb/hotel-1730-mercure-schiphol-terminal/index.shtml,52.3367,4.81653,Amsterdam,6.876364417974544
326,Mercure Amsterdam Arthur Frommer,3.0,103,Amsterdam,NL,Netherlands,Noorderstraat 46,Amsterdam Netherlands,http://www.mercure.com/hotel-directory/gb/europe/netherlands/amsterdam/amsterdam-hotel.htm,52.3612,4.89358,Amsterdam,1.0159685726559249
327,Mercure Hotel Amsterdam Aan De Amstel,4.0,94,Amsterdam,NL,Netherlands,Joan Muyskenweg 10,Amsterdam Netherlands,http://www.accorhotels.com,52.3351,4.9133,Amsterdam,3.7188500921639855
328,Mercure Schiphol Terminal Hotel Amsterdam,3.0,113,Amsterdam,NL,Netherlands,Amsterdam Airport Schiphol Terminal Building,Amsterdam Netherlands,http://www.mercure.com/gb/hotel-1730-mercure-schiphol-terminal/index.shtml,52.3072,4.75536,Amsterdam,12.156748419909038
329,Metropolitan Apartment,3.0,391,Amsterdam,NL,Netherlands,Kadijksplein 16,Amsterdam Netherlands,,52.3703,4.912669999999999,Amsterdam,0.6717861865505605
330,Miauw Suites Amsterdam,1.0,257,Amsterdam,NL,Netherlands,Hartenstraat 36,Amsterdam Netherlands,http://www.miauw.com/SUITES/tosleep.html,52.3723,4.8852,Amsterdam,1.3396313301589569
331,Moevenpick Hotel Amsterdam City Center,4.0,135,Amsterdam,NL,Netherlands,Piet Heinkade 11,Amsterdam Netherlands,http://www.moevenpick-hotels.com/en/pub/hotels_resorts/worldmap/amsterdam/welcome.cfm,52.378,4.91411,Amsterdam,1.325978407328566
332,Montelbaan Tower Houseboat,1.5,270,Amsterdam,NL,Netherlands,Oudeschans 5,Amsterdam Netherlands,,52.3717,4.9061900000000005,Amsterdam,0.450560419968441
333,Morning Star Residence,1.0,268,Amsterdam,NL,Netherlands,Prinsengracht 162,Amsterdam Netherlands,http://www.amsterdamcityapartments.com,52.3748,4.88287,Amsterdam,1.6003712662037282
334,Museum District Guest House,1.0,78,Amsterdam,NL,Netherlands,Peter Cornelisz Hooftstraat 52-2,Amsterdam Netherlands,http://museumdistricthouse.com/,52.3607,4.88168,Amsterdam,1.6966763128678035
335,Museum Suites Amsterdam,4.0,171,Amsterdam,NL,Netherlands,Willemsparkweg 113,Amsterdam Netherlands,,52.3566,4.87287,Amsterdam,2.4445925253906267
336,Mystery 4 Star Hotel Amsterdam,4.0,130,Amsterdam,NL,Netherlands,near Amsterdam Central Station,Amsterdam Netherlands,http://seasonstar.com/,52.3787,4.9004900000000005,Amsterdam,1.210592387840197
337,Nadia Hotel Amsterdam,2.0,76,Amsterdam,NL,Netherlands,Raadhuisstraat 51,Amsterdam Netherlands,http://www.nadia.nl,52.3739,4.88558,Amsterdam,1.390391460358454
338,Nemo By The Park Guest House Amsterdam,2.0,99,Amsterdam,NL,Netherlands,Nieuwe Herengracht 181,Amsterdam Netherlands,http://www.amsterdam.info/museums/nemo/,52.3695,4.9097800000000005,Amsterdam,0.4559072516319391
339,Nemo Guest Accommodations,3.0,149,Amsterdam,NL,Netherlands,Prins Hendrikkade: 133 1011 AR,Amsterdam Netherlands,,52.3738,4.90555,Amsterdam,0.6611600431188231
340,NH Amsterdam Centre,4.0,112,Amsterdam,NL,Netherlands,Stadhouderskade 7,Amsterdam Netherlands,http://www.nh-hotels.com/nh/en/hotels/the-netherlands/amsterdam/nh-amsterdam-centre.html?nhagentid=10755&nhsubagentid=107555220035,52.3632,4.87955,Amsterdam,1.7200480226588828
341,NH Amsterdam City Centre,3.0,107,Amsterdam,NL,Netherlands,Spuistraat 288 292,Amsterdam Netherlands,http://www.nh-hotels.com/nh/en/hotels/the-netherlands/amsterdam/nh-city-centre-amsterdam.html?nhagentid=10755&nhsubagentid=107555220035,52.3697,4.88888,Amsterdam,1.0180428022672288
342,NH Barbizon Palace,5.0,115,Amsterdam,NL,Netherlands,Prins Hendrikkade 59-72,Amsterdam Netherlands,http://www.nh-hotels.com/nh/en/hotels/the-netherlands/amsterdam/nh-barbizon-palace.html,52.3765,4.9000699999999995,Amsterdam,0.9769597387044714
343,NH Caransa,4.0,118,Amsterdam,NL,Netherlands,Rembrandtplein 19,Amsterdam Netherlands,http://www.nh-hotels.com/nh/en/hotels/the-netherlands/amsterdam/nh-caransa.html?nhagentid=10755&nhsubagentid=107555220035,52.3663,4.89719,Amsterdam,0.47272631792118186
344,NH Carlton Amsterdam,4.0,106,Amsterdam,NL,Netherlands,Vijzelstraat 4,Amsterdam Netherlands,http://www.nh-hotels.com/nh/en/hotels/the-netherlands/amsterdam/nh-carlton-amsterdam.html?nhagentid=10755&nhsubagentid=107555220035,52.3662,4.8931,Amsterdam,0.7397203009206681
345,NH Doelen,4.0,118,Amsterdam,NL,Netherlands,Nieuwe Doelenstraat 26,Amsterdam Netherlands,http://www.nh-hotels.com/nh/en/hotels/the-netherlands/amsterdam/nh-doelen.html?nhagentid=10755&nhsubagentid=107555220035,52.3683,4.89583,Amsterdam,0.5277809517309435
346,NH Galaxy,4.0,100,Amsterdam,NL,Netherlands,Distelkade 21,Amsterdam Netherlands,http://www.nh-hotels.com/nh/en/hotels/the-netherlands/amsterdam/nh-galaxy.html?nhagentid=10755&nhsubagentid=107555220035,52.3922,4.9105,Amsterdam,2.735701568102888
347,NH Grand Hotel Krasnapolsky,5.0,149,Amsterdam,NL,Netherlands,Dam 9,Amsterdam Netherlands,http://www.nh-hotels.com/nh/en/hotels/the-netherlands/amsterdam/nh-grand-hotel-krasnapolsky.html?nhagentid=10755&nhsubagentid=107555220035,52.3723,4.8947,Amsterdam,0.7712923412767227
348,NH Museum Quarter,4.0,111,Amsterdam,NL,Netherlands,Hobbemakade 50,Amsterdam Netherlands,http://www.nh-hotels.com/nh/en/hotels/the-netherlands/amsterdam/nh-museum-quarter.html?nhagentid=10755&nhsubagentid=107555220035,52.3556,4.8863,Amsterdam,1.811564836991605
349,NH Musica,4.0,80,Amsterdam,NL,Netherlands,Van Leijenberghlaan 221,Amsterdam Netherlands,http://www.nh-hotels.com/nh/en/hotels/the-netherlands/amsterdam/nh-musica.html?nhagentid=10755&nhsubagentid=107555220035,52.3266,4.8798699999999995,Amsterdam,4.879799465307371
350,NH Schiller,4.0,118,Amsterdam,NL,Netherlands,Rembrandtplein 26,Amsterdam Netherlands,http://www.nh-hotels.com/nh/en/hotels/the-netherlands/amsterdam/nh-schiller.html?nhagentid=10755&nhsubagentid=107555220035,52.3658,4.89647,Amsterdam,0.540736620885643
351,NH Tropen,3.0,82,Amsterdam,NL,Netherlands,Linnaeusstraat 2c,Amsterdam Netherlands,http://www.nh-hotels.com/nh/en/hotels/the-netherlands/amsterdam/nh-tropen.html?nhagentid=10755&nhsubagentid=107555220035,52.363,4.923030000000001,Amsterdam,1.4374553005849227
352,Nicolaas Witsen Hotel,3.0,63,Amsterdam,NL,Netherlands,Nicolaas Witsenstraat 4,Amsterdam Netherlands,http://www.hotelnicolaaswitsen.nl/,52.3591,4.896319999999999,Amsterdam,1.1048298995852506
353,Nieuw Slotania Hotel,3.0,63,Amsterdam,NL,Netherlands,Slotermeerlaan 133,Amsterdam Netherlands,http://www.nieuwslotania.nl/,52.3813,4.82126,Amsterdam,5.797528870561129
354,Nieuwe Prinsengracht Apartment,3.0,249,Amsterdam,NL,Netherlands,Nieuwe Prinsengracht 11,Amsterdam Netherlands,,52.3637,4.90834,Amsterdam,0.577257190310641
355,Nine Streets Apartments,2.5,123,Amsterdam,NL,Netherlands,Wolvenstraat 34,Amsterdam Netherlands,http://www.theninestreets.com/,52.3703,4.88506,Amsterdam,1.286236704556836
356,NL Hotel,3.0,88,Amsterdam,NL,Netherlands,Nassaukade 368,Amsterdam Netherlands,http://www.thotel.nl,52.3657,4.8783199999999995,Amsterdam,1.7380111244629486
357,NL-Hotel Museumplein,3.0,112,Amsterdam,NL,Netherlands,Frans van Mierisstraat 34,Amsterdam Netherlands,,52.3546,4.882280000000001,Amsterdam,2.0784431007967408
358,Nova Apartments Amsterdam,4.0,99,Amsterdam,NL,Netherlands,Nicolaas Maesstraat 72,Amsterdam Netherlands,http://www.novaapartments.nl/,52.3546,4.87983,Amsterdam,2.198118400119982
359,Nova Hotel Amsterdam,3.0,99,Amsterdam,NL,Netherlands,Nieuwezijds Voorburgwal 276,Amsterdam Netherlands,http://www.novahotel.nl,52.3713,4.89013,Amsterdam,0.9864230782768696
360,Novotel Amsterdam City,4.0,93,Amsterdam,NL,Netherlands,Europaboulevard 10,Amsterdam Netherlands,http://www.novotel.com/gb/hotel-0515-novotel-amsterdam-city/index.shtml,52.3337,4.88975,Amsterdam,3.9293175152588535
361,Ohmkar,3.0,69,Amsterdam,NL,Netherlands,Langebrugsteeg 2,Amsterdam Netherlands,,52.3693,4.892919999999999,Amsterdam,0.7394499421023042
362,Okura Amsterdam Hotel,5.0,142,Amsterdam,NL,Netherlands,Ferdinand Bolstraat 333,Amsterdam Netherlands,http://www.okura.nl/en.html,52.3488,4.8914800000000005,Amsterdam,2.2878992670485383
363,Old City Amsterdam Bed & Breakfast,1.0,108,Amsterdam,NL,Netherlands,Pieterjacobszdwarsstraat 13,Amsterdam Netherlands,http://oldcityamsterdambnb.com/,52.3738,4.89093,Amsterdam,1.0765336676764468
364,Old Masters Apartment,1.0,260,Amsterdam,NL,Netherlands,Weteringstraat 33,Amsterdam Netherlands,,52.3613,4.8887599999999996,Amsterdam,1.2529141608042564
365,Old Nickel,1.0,64,Amsterdam,NL,Netherlands,Nieuwe Brugsteeg 11,Amsterdam Netherlands,http://www.wooden-nickel.com/,52.3764,4.89939,Amsterdam,0.9785990833727503
366,Olympic Stadium Apartment,1.0,244,Amsterdam,NL,Netherlands,Amstelveenseweg 334,Amsterdam Netherlands,www.amsterdamcityapartments.com,52.3458,4.85749,Amsterdam,3.993266441468661
367,Omega Hotel Amsterdam,3.0,65,Amsterdam,NL,Netherlands,Jacob Obrechtstraat 33,Amsterdam Netherlands,http://www.hostelsamsterdam.com/hotels/omega_hotel_amsterdam/index.php,52.3558,4.87555,Amsterdam,2.3408283194135477
368,Oosterpark Apartment,1.0,279,Amsterdam,NL,Netherlands,Eerste Oosterparkstraat 33,Amsterdam Netherlands,,52.3558,4.90843,Amsterdam,1.39577566041154
369,Orfeo Hotel Amsterdam,3.0,26,Amsterdam,NL,Netherlands,Leidsekruisstraat 14,Amsterdam Netherlands,http://hotelorfeo.com/,52.3637,4.88526,Amsterdam,1.3346779374362046
370,Owl Hotel,3.0,89,Amsterdam,NL,Netherlands,Roemer Visscherstraat 1,Amsterdam Netherlands,http://www.owl-hotel.nl,52.3621,4.87862,Amsterdam,1.82076453620643
371,Paganini Hotel,3.0,39,Amsterdam,NL,Netherlands,Stadhouderskade 68,Amsterdam Netherlands,http://www.hotelpaganini.nl/,52.3586,4.88899,Amsterdam,1.4407289909501722
372,Pakhuys,1.0,202,Amsterdam,NL,Netherlands,Passeerdersstraat 1,Amsterdam Netherlands,http://www.pakhuysvastgoed.nl/,52.3679,4.88203,Amsterdam,1.4666095874300422
373,Park Hotel Amsterdam,4.0,114,Amsterdam,NL,Netherlands,Stadhouderskade 25,Amsterdam Netherlands,http://www.parkhotel.nl/,52.3617,4.88261,Amsterdam,1.5892823493069326
374,Park Mansion,4.0,381,Amsterdam,NL,Netherlands,Vossiusstraat 15,Amsterdam Netherlands,http://www.parkhotel.nl/,52.3611,4.88101,Amsterdam,1.7165820856602454
375,Park Plaza Victoria Amsterdam,4.0,148,Amsterdam,NL,Netherlands,Damrak 1-5,Amsterdam Netherlands,http://www.parkplaza.com/amsterdam-hotel-nl-1012lg/netamst,52.3771,4.8981,Amsterdam,1.0803915573498013
376,Park Plaza Vondelpark Amsterdam,4.0,97,Amsterdam,NL,Netherlands,Koninginneweg 34-36,Amsterdam Netherlands,http://www.parkplaza.com,52.3541,4.8664,Amsterdam,2.9657805738867165
377,Penthouse,4.0,380,Amsterdam,NL,Netherlands,Vossiusstraat 15,Amsterdam Netherlands,,52.361000000000004,4.8810400000000005,Amsterdam,1.7197549396008662
378,Petit Prince,3.0,362,Amsterdam,NL,Netherlands,Prinsengracht 232,Amsterdam Netherlands,,52.3724,4.88264,Amsterdam,1.5072936419858
379,PhilDutch Houseboat Bed and Breakfast Amsterdam,3.0,88,Amsterdam,NL,Netherlands,Nicolaas Witsenkade 17/G,Amsterdam Netherlands,http://www.phildutch.net/,52.3583,4.89478,Amsterdam,1.2325135617862921
380,Pina Apartments,1.0,189,Amsterdam,NL,Netherlands,Keizersgracht 233,Amsterdam Netherlands,http://www.pina-apartments.com,52.3723,4.8852400000000005,Amsterdam,1.3370883489077101
381,Poseidon Apartment,2.5,245,Amsterdam,NL,Netherlands,Linnaeusparkweg 4,Amsterdam Netherlands,,52.3559,4.93105,Amsterdam,2.305378000802081
382,Prince Canalhouse Apartment Suites,2.0,243,Amsterdam,NL,Netherlands,Prinsengracht 674,Amsterdam Netherlands,,52.3618,4.89306,Amsterdam,0.9926035290720415
383,Prince Hendrik Suites Amsterdam,3.0,134,Amsterdam,NL,Netherlands,Prins Hendrikkade 173-175,Amsterdam Netherlands,http://www.cheaphotelsinamsterdam.net/hotels/p/11.aspx,52.3718,4.90992,Amsterdam,0.606499143198139
384,Prinsen Apartment Amsterdam,4.0,399,Amsterdam,NL,Netherlands,Prins Hendrikkade 135hs,Amsterdam Netherlands,,52.3737,4.90563,Amsterdam,0.6514292957105045
385,Prinsen Hotel,3.0,76,Amsterdam,NL,Netherlands,Vondelstraat 36-38,Amsterdam Netherlands,http://www.prinsenhotel.nl,52.3624,4.8777099999999995,Amsterdam,1.8673595441397477
386,Prinsengracht Studio,3.0,85,Amsterdam,NL,Netherlands,Prinsengracht 1079,Amsterdam Netherlands,,52.3625,4.8998099999999996,Amsterdam,0.6616027054571558
387,Prinsenhuis Design Apartments Amsterdam,4.0,173,Amsterdam,NL,Netherlands,Prinsengracht 967,Amsterdam Netherlands,http://www.prinsenhuis.nl/,52.361999999999995,4.894369999999999,Amsterdam,0.9140146054446459
388,Purple Apartment,3.0,484,Amsterdam,NL,Netherlands,Admiraal de Ruijterweg 371 Bos en Lommer,Amsterdam Netherlands,,52.3819,4.85219,Amsterdam,3.8258953215892046
389,Qbic Hotel Amsterdam Wtc,3.0,55,Amsterdam,NL,Netherlands,Mathijs Vermeulenpad 1,Amsterdam Netherlands,http://www.qbichotels.com/,52.3408,4.8735599999999994,Amsterdam,3.6508245240890713
390,Quartier Latin Apartment,4.0,196,Amsterdam,NL,Netherlands,Frans Halsstraat 94,Amsterdam Netherlands,,52.3551,4.88846,Amsterdam,1.7645995266801122
391,Quentin Arrive,1.0,42,Amsterdam,NL,Netherlands,Haarlemmerstraat 65,Amsterdam Netherlands,http://quentinarrive.com/,52.38,4.89274,Amsterdam,1.5267026385872093
392,Quentin England Hotel,2.0,42,Amsterdam,NL,Netherlands,Roemer Visscherstraat 30,Amsterdam Netherlands,http://www.quentinengland.com,52.3614,4.87726,Amsterdam,1.935631924582813
393,Quentin Hotel,2.0,49,Amsterdam,NL,Netherlands,Leidsekade 89,Amsterdam Netherlands,http://quentinamsterdam.com,52.364,4.88049,Amsterdam,1.6328835548665457
394,Radisson Blu Hotel Amsterdam,4.0,171,Amsterdam,NL,Netherlands,Rusland 17,Amsterdam Netherlands,http://www.radissonblu.com,52.3701,4.896669999999999,Amsterdam,0.5251163519275432
395,Ramada Apollo Hotel,3.0,103,Amsterdam,NL,Netherlands,Staalmeesterslaan 410,Amsterdam Netherlands,http://www.ramada.com/hotels/netherlands/amsterdam/ramada-apollo-amsterdam-centre/photos-video,52.3681,4.843999999999999,Amsterdam,4.056948176224401
396,Red Light Studio,1.5,93,Amsterdam,NL,Netherlands,Lange Niezel 13,Amsterdam Netherlands,http://redlightfashionamsterdam.com/,52.3751,4.89839,Amsterdam,0.8665992104997827
397,Rembrandt Classic Hotel,3.0,73,Amsterdam,NL,Netherlands,Herengracht 255,Amsterdam Netherlands,http://www.rembrandtclassic.com/EN/hotel.html,52.3719,4.88738,Amsterdam,1.1851258313516602
398,Rembrandt Square Apartment Suites,1.0,154,Amsterdam,NL,Netherlands,Reguliersbreestraat 51,Amsterdam Netherlands,,52.3664,4.8956800000000005,Amsterdam,0.5650442395252563
399,Rembrandt Square Hotel,1.0,58,Amsterdam,NL,Netherlands,Rembrandtplein 24,Amsterdam Netherlands,http://www.rembrandtsquarehotel.com,52.3658,4.89637,Amsterdam,0.5468298132549013
400,Rembrandt Square Houseboat,1.5,193,Amsterdam,NL,Netherlands,Amstel 66,Amsterdam Netherlands,,52.367,4.89625,Amsterdam,0.5099122407167387
401,Rembrandtplein Hotel,3.0,69,Amsterdam,NL,Netherlands,Groenburgwal 27,Amsterdam Netherlands,http://www.rembrandtpleinhotel.nl/,52.369,4.898540000000001,Amsterdam,0.3602113287704165
402,Remco Hotel Amsterdam City West,3.0,45,Amsterdam,NL,Netherlands,Reimerswaalstraat 5,Amsterdam Netherlands,http://www.hotels-amsterdam-netherlands-hotels.com/brochure-pages/tulip-inn-amsterdam-city-west-10666.html,52.3627,4.79433,Amsterdam,7.46377004748065
403,Renaissance Amsterdam Hotel,5.0,149,Amsterdam,NL,Netherlands,Kattengat 1,Amsterdam Netherlands,http://www.amsterdamhotel.net/,52.3781,4.89424,Amsterdam,1.2923001908450058
404,RHO Hotel,3.0,107,Amsterdam,NL,Netherlands,Nes 5-23,Amsterdam Netherlands,http://www.rhohotel.com,52.3722,4.89385,Amsterdam,0.8109035056216817
405,Rokin Hotel,3.0,104,Amsterdam,NL,Netherlands,Rokin 73,Amsterdam Netherlands,http://www.rokinhotel.com/,52.3706,4.89289,Amsterdam,0.7829553602505724
406,Rooms & Co Bed And Breakfast Amsterdam,3.0,86,Amsterdam,NL,Netherlands,Hemonystraat 1a,Amsterdam Netherlands,http://www.spareroom.co.uk/,52.3582,4.90185,Amsterdam,1.0949645792228464
407,Royal Taste Hotel Amsterdam,1.0,64,Amsterdam,NL,Netherlands,Achterburgwal 47,Amsterdam Netherlands,http://www.hotelroyaltaste.nl/,52.3735,4.89931,Amsterdam,0.6786319448975819
408,Sandton Hotel de Filosoof,3.0,74,Amsterdam,NL,Netherlands,Anna Van Den Vondelstraat 6,Amsterdam Netherlands,http://www.hoteldefilosoof.nl,52.361000000000004,4.86949,Amsterdam,2.447568783240519
409,Sarphati Apartment,2.0,394,Amsterdam,NL,Netherlands,Sarphatipark 58,Amsterdam Netherlands,,52.3535,4.89572,Amsterdam,1.6979491239133242
410,Sarphati Suites Amsterdam,4.0,210,Amsterdam,NL,Netherlands,Sarphatistraat 113,Amsterdam Netherlands,http://www.hotelpascheramsterdam.com/prince-hendrik-suites-cheap-hotel-in-amsterdam/,52.3617,4.91045,Amsterdam,0.8421280728091325
411,Sasha Bed And Breakfast Amsterdam,4.0,42,Amsterdam,NL,Netherlands,71 Vijzelstraat,Amsterdam Netherlands,http://www.sashabedandbreakfastamsterdam.com/,52.3646,4.89272,Amsterdam,0.8289510498934476
412,Seasons Hotel Amsterdam,3.0,91,Amsterdam,NL,Netherlands,Stadhouderskade 135,Amsterdam Netherlands,http://hotel-seasons-amsterdam.h-rez.com/,52.3581,4.90056,Amsterdam,1.1187103575930377
413,Sharm Hotel,1.5,116,Amsterdam,NL,Netherlands,Raadhuisstraat 33,Amsterdam Netherlands,,52.3735,4.8862,Amsterdam,1.332266951872001
414,Sheraton Amsterdam Airport Hotel and Conference Center,4.0,153,Amsterdam,NL,Netherlands,Schiphol Boulevard 101,Amsterdam Netherlands,http://www.starwoodhotels.com,52.3089,4.75937,Amsterdam,11.824234724513678
415,Short Stay Amstel Apartments,5.0,329,Amsterdam,NL,Netherlands,Weesperzijde 73,Amsterdam Netherlands,http://www.shortstay-apartment.com/amsterdam/specialoffers/,52.3535,4.90971,Amsterdam,1.6652695656747702
416,Short Stay Apartment Bilderdijk,1.0,313,Amsterdam,NL,Netherlands,Bilderdijkstraat 90,Amsterdam Netherlands,,52.3695,4.87052,Amsterdam,2.256836555195806
417,Short Stay Apartment Kloveniersburgwal,1.0,330,Amsterdam,NL,Netherlands,Kloveniersburgwal 42,Amsterdam Netherlands,,52.3712,4.89861,Amsterdam,0.4917039091653719
418,Short Stay Apartments Prinsengracht,1.0,288,Amsterdam,NL,Netherlands,Prinsengracht,Amsterdam Netherlands,http://www.shortstay-apartment.com/amsterdam/specialoffers/,52.3695,4.88296,Amsterdam,1.413308261990753
419,Shortstay Amsterdam City Centre,1.5,330,Amsterdam,NL,Netherlands,Brouwersgracht 21,Amsterdam Netherlands,http://www.shortstay-apartment.com/amsterdam/,52.379,4.89259,Amsterdam,1.4355557459675723
420,Singel Apartment,1.0,285,Amsterdam,NL,Netherlands,Singel 10,Amsterdam Netherlands,,52.3791,4.89396,Amsterdam,1.3991045323003357
421,Singel Hotel,3.0,76,Amsterdam,NL,Netherlands,Singel 13-17,Amsterdam Netherlands,http://www.singelhotel.nl,52.3778,4.89335,Amsterdam,1.2948514916782052
422,Sir Nico Bed & Breakfast,2.5,108,Amsterdam,NL,Netherlands,663 Prinsengracht,Amsterdam Netherlands,http://www.sirnico.com/,52.3668,4.88276,Amsterdam,1.422989583658204
423,Sofitel The Grand Amsterdam,5.0,240,Amsterdam,NL,Netherlands,Oudezijds Voorburgwal 197,Amsterdam Netherlands,http://www.sofitel.com/gb/hotel-2783-sofitel-legend-the-grand-amsterdam/index.shtml,52.3709,4.89509,Amsterdam,0.6619584745381475
424,Sophias,1.0,150,Amsterdam,NL,Netherlands,Sophialaan 45,Amsterdam Netherlands,,52.3524,4.85759,Amsterdam,3.5798766886785094
425,Spa Sport Hotel Zuiver,3.0,107,Amsterdam,NL,Netherlands,Koenenkade 8,Amsterdam Netherlands,http://www.spazuiver.nl/en/spa/,52.3309,4.853619999999999,Amsterdam,5.348763839541027
426,Sphinx Hotel Amsterdam,2.0,17,Amsterdam,NL,Netherlands,Weteringschans 82,Amsterdam Netherlands,http://www.sphinxhotel.nl,52.3594,4.89395,Amsterdam,1.1580584746197191
427,Stadhouderskade Apartment,4.0,210,Amsterdam,NL,Netherlands,Stadhouderskade 121,Amsterdam Netherlands,www.amsterdamcityapartments.com,52.3576,4.89905,Amsterdam,1.1956752891086595
428,Starry Night Apartment,1.0,268,Amsterdam,NL,Netherlands,Nieuwe Uilenburgerstraat 106,Amsterdam Netherlands,,52.3702,4.9038699999999995,Amsterdam,0.24744494979753553
429,Stayokay Amsterdam Vondelpark,2.0,22,Amsterdam,NL,Netherlands,Zandpad 5,Amsterdam Netherlands,http://www.stayokay.com,52.3613,4.8791400000000005,Amsterdam,1.8222591663255114
430,Stayokay Amsterdam Zeeburg,2.0,12,Amsterdam,NL,Netherlands,Timorplein 21,Amsterdam Netherlands,http://www.stayokay.com,52.3656,4.93542,Amsterdam,2.186216268437405
431,Studio Bloemgracht,1.0,187,Amsterdam,NL,Netherlands,Bloemgracht 75,Amsterdam Netherlands,http://www.studiobloemgracht.nl,52.3744,4.88018,Amsterdam,1.7451725067279704
432,t Hotel,3.0,115,Amsterdam,NL,Netherlands,Leliegracht 18,Amsterdam Netherlands,http://www.travel-library.com/hotels/europe/netherlands/amsterdam/t_hotel.html,52.3752,4.88715,Amsterdam,1.3762417768694661
433,Teatro Apartments,1.0,142,Amsterdam,NL,Netherlands,Kadijksplein 16a,Amsterdam Netherlands,http://www.apartmentsapart.com/Europe/Netherlands/Amsterdam/Apartments/Studio,52.3702,4.91263,Amsterdam,0.6650666598627101
434,The Albus,4.0,108,Amsterdam,NL,Netherlands,Vijzelstraat 49,Amsterdam Netherlands,http://www.albushotel.com/,52.3657,4.8931,Amsterdam,0.7565583253237574
435,The Blue Houseboat,1.0,190,Amsterdam,NL,Netherlands,Prinsengracht 324-P,Amsterdam Netherlands,http://www.hotelsinamsterdam-netherlands.com/hotel/the-blue-houseboat,52.3691,4.88237,Amsterdam,1.4487306924180767
436,The Blue Sheep,3.0,124,Amsterdam,NL,Netherlands,Korsjespoortsteeg 3,Amsterdam Netherlands,http://www.thebluesheep.net,52.3772,4.89164,Amsterdam,1.307979996275593
437,The Bridge Hotel Amsterdam,3.0,120,Amsterdam,NL,Netherlands,Amstel 107-111,Amsterdam Netherlands,http://www.thebridgehotel.nl/,52.3627,4.9036,Amsterdam,0.5880125777597395
438,The College Hotel Amsterdam,4.0,207,Amsterdam,NL,Netherlands,Roelof Hartstraat 1,Amsterdam Netherlands,http://www.thecollegehotel.com/,52.3528,4.88401,Amsterdam,2.151484846345337
439,The Downtown Apartment,1.0,332,Amsterdam,NL,Netherlands,Reguliersdwarsstraat 93,Amsterdam Netherlands,,52.36600000000001,4.89364,Amsterdam,0.7109526337118596
440,The Dylan,5.0,299,Amsterdam,NL,Netherlands,Keizersgracht 384,Amsterdam Netherlands,http://dylanamsterdam.com/,52.3692,4.88427,Amsterdam,1.320931062965441
441,The Greenhouse Effect Hotel Amsterdam,2.0,71,Amsterdam,NL,Netherlands,Warmoesstraat 55,Amsterdam Netherlands,http://www.greenhouse-effect.nl/,52.3753,4.89818,Amsterdam,0.8927548756386418
442,The Guest-Houseboat,2.5,178,Amsterdam,NL,Netherlands,Bouwersgracht 119C,Amsterdam Netherlands,http://www.123hotelsnetherlands.com/,52.3812,4.88701,Amsterdam,1.8528806408191403
443,The Loft Amsterdam,2.5,187,Amsterdam,NL,Netherlands,William Barlowlaan 157,Amsterdam Netherlands,http://netherlands.gabinohome.com/en/rent+room/amsterdam,52.3605,4.97966,Amsterdam,5.250249008399675
444,The Old Lady,3.0,188,Amsterdam,NL,Netherlands,Singel 38,Amsterdam Netherlands,http://www.theoldlady.nl,52.3783,4.89305,Amsterdam,1.3528135400063077
445,The Pijp Apartment,2.5,394,Amsterdam,NL,Netherlands,Gerard Doustraat,Amsterdam Netherlands,,52.3559,4.89289,Amsterdam,1.528600202332406
446,The Posthoorn,3.5,181,Amsterdam,NL,Netherlands,Prinsengracht 7,Amsterdam Netherlands,http://www.posthoornamsterdam.com,52.38,4.88839,Amsterdam,1.6897497993194757
447,The Sonnenbergs,4.0,254,Amsterdam,NL,Netherlands,Herengracht 361,Amsterdam Netherlands,http://www.hotelsinamsterdam-netherlands.com/,52.369,4.88709,Amsterdam,1.127589726927696
448,The Times Hotel Amsterdam,3.0,117,Amsterdam,NL,Netherlands,Herengracht 135 - 137,Amsterdam Netherlands,http://www.shortstay-amsterdam.com/,52.3755,4.88894,Amsterdam,1.3004164108932807
449,The Toren,4.0,109,Amsterdam,NL,Netherlands,Keizersgracht 164,Amsterdam Netherlands,http://www.thetoren.nl/,52.3758,4.88598,Amsterdam,1.4799260814826318
450,The Veteran Hostel Amsterdam,1.0,49,Amsterdam,NL,Netherlands,Herengracht 561,Amsterdam Netherlands,http://www.hosteltheveteran.nl/,52.365,4.89564,Amsterdam,0.6335712459799763
451,The Vogue,2.5,239,Amsterdam,NL,Netherlands,Hemonystraat,Amsterdam Netherlands,http://forums.vogue.com.au/showthread.php?t=334159,52.3583,4.90193,Amsterdam,1.0833284416628943
452,Thorbecke Hotel,1.0,53,Amsterdam,NL,Netherlands,Thorbeckeplein 3,Amsterdam Netherlands,http://www.imperial-hotel.com,52.3657,4.895919999999999,Amsterdam,0.5792453403629828
453,Top Secret 4 Star Hotel Amsterdam,4.0,129,Amsterdam,NL,Netherlands,City Centre,Amsterdam Netherlands,http://www.amsterdamsecrethotels.com/,52.3731,4.89222,Amsterdam,0.9595477312312632
454,Top Secret Five Star Hotel,5.0,185,Amsterdam,NL,Netherlands,City Centre,Amsterdam Netherlands,http://www.fivestaralliance.com/luxury-hotels/590/europe/netherlands/amsterdam,52.3813,4.9027,Amsterdam,1.4828582042176697
455,Townhouse Hotel Amsterdam,1.0,34,Amsterdam,NL,Netherlands,Prinsengracht 816,Amsterdam Netherlands,,52.361999999999995,4.89949,Amsterdam,0.721343341514122
456,Townhouse Inn,2.0,157,Amsterdam,NL,Netherlands,Schippersgracht 12A,Amsterdam Netherlands,http://www.innsite.com/inns/B010050.html,52.3706,4.91159,Amsterdam,0.619475310639217
457,Travel Hotel,2.0,52,Amsterdam,NL,Netherlands,Beurstraat 23 1012 JV,Amsterdam Netherlands,http://www.travelhotel.nl/,52.3749,4.896719999999999,Amsterdam,0.8996146308516124
458,Trianon Hotel Amsterdam,2.0,60,Amsterdam,NL,Netherlands,Jan Willem Brouwersstraat 3,Amsterdam Netherlands,http://trianon-hotel-amsterdam.h-rez.com/,52.3566,4.87875,Amsterdam,2.1122336519005924
459,Truelove Guesthouse,2.0,81,Amsterdam,NL,Netherlands,Prinsenstraat 4,Amsterdam Netherlands,http://www.truelove.be/,52.3777,4.88755,Amsterdam,1.535554054654108
460,Tulip Apartment,4.0,241,Amsterdam,NL,Netherlands,Eerste Looiersdwarsstraat 4,Amsterdam Netherlands,,52.3693,4.88077,Amsterdam,1.559266422169883
461,Tulip Inn Amsterdam Centre,3.0,80,Amsterdam,NL,Netherlands,Beursstraat 11-19,Amsterdam Netherlands,http://www.tulipinnamsterdamcentre.com/default.aspx?Language=EN,52.3751,4.89701,Amsterdam,0.9088655375833955
462,Tulip Inn Amsterdam Riverside,3.0,63,Amsterdam,NL,Netherlands,Provincialeweg 38,Amsterdam Netherlands,http://www.tulipinnamsterdamriverside.nl,52.3154,4.99562,Amsterdam,8.579170548614174
463,Tulipa Bed And Breakfast Amsterdam,3.0,217,Amsterdam,NL,Netherlands,Leidsekade 75,Amsterdam Netherlands,http://tulipa-amsterdam.com/content/welcome,52.365,4.8799,Amsterdam,1.6455688878480688
464,Ultraviolet Studios,2.0,186,Amsterdam,NL,Netherlands,Oude Hoogstraat 12,Amsterdam Netherlands,,52.3713,4.897480000000001,Amsterdam,0.554703127857454
465,View Bed & Breakfast,2.0,143,Amsterdam,NL,Netherlands,Leidsekade 73,Amsterdam Netherlands,http://pleasantviewbedandbreakfast.com/index.html,52.365,4.8802,Amsterdam,1.6255598005743312
466,Visseringstaete,4.0,200,Amsterdam,NL,Netherlands,Visseringstraat 21,Amsterdam Netherlands,http://visseringstaete.williamhotels.com,52.3778,4.869619999999999,Amsterdam,2.5566621158059935
467,Vondelpark Museum B&B,3.0,129,Amsterdam,NL,Netherlands,Vossiusstraat 14,Amsterdam Netherlands,,52.3611,4.88128,Amsterdam,1.700142796846517
468,Vondelpark Suites Amsterdam,4.0,130,Amsterdam,NL,Netherlands,Eerste Constantijn Huygensstraat 118 Oud West,Amsterdam Netherlands,http://www.amsterdam-hotels-guide.com/amsterdam-hotel-and-suites.htm,52.361999999999995,4.87568,Amsterdam,2.0125814580701085
469,Waterloo Apartments Amsterdam,4.0,180,Amsterdam,NL,Netherlands,Rapenburgerstraat 157,Amsterdam Netherlands,http://www.myamsterdamguide.com/amsterdam-netherlands-condos.html,52.3685,4.90637,Amsterdam,0.19972364673784354
470,Weber Hotel Amsterdam,2.0,112,Amsterdam,NL,Netherlands,Marnixstraat 397,Amsterdam Netherlands,http://www.amsterdam-hotels-guide.com/hotel-weber-amsterdam.htm,52.3651,4.88039,Amsterdam,1.6106369538489413
471,Westcord Art Hotel Amsterdam 3 Stars,3.0,83,Amsterdam,NL,Netherlands,Spaarndammerdijk 302,Amsterdam Netherlands,http://www.westcordhotels.nl,52.3929,4.86841,Amsterdam,3.662790529200433
472,Westcord City Centre Hotel Amsterdam,3.0,82,Amsterdam,NL,Netherlands,Nieuwezijds Voorburgwal 50,Amsterdam Netherlands,http://www.westcordhotels.nl,52.3763,4.89345,Amsterdam,1.1534622815722
473,Westcord Fashion Hotel Amsterdam,4.0,33,Amsterdam,NL,Netherlands,Hendrikje Stoffelstraat 1,Amsterdam Netherlands,http://www.westcordhotels.nl,52.3577,4.84431,Amsterdam,4.1953794079274065
474,Wester Steeg,3.0,214,Amsterdam,NL,Netherlands,Westerstraat 135-3,Amsterdam Netherlands,,52.378,4.88286,Amsterdam,1.7971826036846155
475,Westerndock Executive Apartment,2.5,282,Amsterdam,NL,Netherlands,Westerdoksdijk 666,Amsterdam Netherlands,,52.388000000000005,4.89213,Amsterdam,2.3593602762573713
476,WestViolet Bed & Breakfast,1.0,149,Amsterdam,NL,Netherlands,Violettenstraat 4,Amsterdam Netherlands,http://www.westviolet.nl/,52.3786,4.88492,Amsterdam,1.7341263792227928
477,World Fashion Apartments Amsterdam,3.0,175,Amsterdam,NL,Netherlands,Koningin Wilhelminaplein 360,Amsterdam Netherlands,http://www.worldfashionapartments.com/,52.3543,4.8406400000000005,Amsterdam,4.548884734348408
478,Wyndham Apollo,4.0,109,Amsterdam,NL,Netherlands,Apollolaan 2,Amsterdam Netherlands,http://www.wyndham.com/hotels/AMSAM/main.wnt,52.3486,4.8849599999999995,Amsterdam,2.5017058751706656
479,Xavieras Bed And Breakfast Amsterdam,3.0,116,Amsterdam,NL,Netherlands,Stadionweg 17,Amsterdam Netherlands,http://www.bed-n-breakfast-amsterdam.nl/,52.3476,4.88094,Amsterdam,2.7422914206296944
480,Yamsterdam Studios And Apartments Amsterdam,3.0,154,Amsterdam,NL,Netherlands,Nieuwezijds Armsteeg 5,Amsterdam Netherlands,http://yamsterdam-apartments.h-rez.com/,52.3771,4.89665,Amsterdam,1.1182410303763246
481,Yellow & Red Tulip Apartments,2.0,302,Amsterdam,NL,Netherlands,Passeerdersstraat,Amsterdam Netherlands,http://www.yellow.com/,52.3675,4.88047,Amsterdam,1.5737667376031208
482,Yotel Schiphol Hotel Amsterdam,3.0,95,Amsterdam,NL,Netherlands,Vetrekpassage 118,Amsterdam Netherlands,http://www.hotels-amsterdam-netherlands-hotels.com/brochure-pages/yotel-schiphol-21893.html,52.3101,4.76094,Amsterdam,11.661051643618196
483,Amsterdam Country Cottage,1.5,134,Amsterdam,NL,Netherlands,Durgerdammergouw 51 Amsterdam-Noord,Amsterdam Netherlands,http://www.cheaphotelsinamsterdam.net/hotels/p/11.aspx,52.3837,5.00256,Amsterdam,6.965048929407955
484,Beijing Yidu Holiday Hotel,4.0,42,Beijing,CN,China,Yi Du Fangshan District,Beijing China,http://www.holidayinn.com/hotels/us/en/hd/china/beijing-hotels,39.5782,115.7,Beijing,70.61619146136343
485,1 Hai Inn Beijing,2.0,22,Beijing,CN,China,No. 31 Beixin Hutong Yonghegong Street Dongcheng District,Beijing China,,39.9447,116.417,Beijing,4.571186428175279
486,4 Banqiao Courtyard Guesthouse Beijing,2.0,112,Beijing,CN,China,No.4 Banqiao Hutong Beixinqiao Dongcheng Dist,Beijing China,,39.9385,116.41799999999999,Beijing,3.9148517646697933
487,5 Star Shanxi Grand Hotel Beijing,5.0,153,Beijing,CN,China,Yangqiao West Road,Beijing China,http://www.beijingservice.com/hotels/fivestar.htm,39.8571,116.38799999999999,Beijing,5.48651102777766
488,A.C. Embassy Hotel Beijing,4.0,71,Beijing,CN,China,No. 26 DongZhimen Outer Street,Beijing China,http://ac-embassy-hotel-beijing.h-rez.com/,39.9412,116.448,Beijing,5.378376605243338
489,Aden Hotel Beijing,4.0,62,Beijing,CN,China,Min Zu Yuan Road No.9,Beijing China,,39.9839,116.38799999999999,Beijing,9.003305742636627
490,A-hotel Workers Stadium Beijing,4.0,71,Beijing,CN,China,Beijing Workers Stadium Dongcheng District,Beijing China,http://gongtiahotelbeijing.com/,39.931,116.449,Beijing,4.637540871215366
491,Ai Hua Hotel Beijing,3.0,25,Beijing,CN,China,48 East Road of Temple of Heaven Chongwen District,Beijing China,,39.8964,116.32600000000001,Beijing,7.014510281269916
492,Aijia Apartment Hotel Puhuangyu,1.0,31,Beijing,CN,China,109 Building 3 GOGO New Generation Apartment No.9 Fangzhuangpufang Road,Beijing China,,39.8659,116.42200000000001,Beijing,4.4322009701141125
493,Aitejia Hotel Apartment Beijing,3.0,32,Beijing,CN,China,8 Qijiahuozi Chaoyang District,Beijing China,,39.9805,116.381,Beijing,8.767097129175312
494,Aiwei Fashion Apartment Hotel,1.0,40,Beijing,CN,China,No.129 North Chaoyang Road Chaoyang District,Beijing China,,39.9235,116.50200000000001,Beijing,8.367770030077615
495,Alley Garden Courtyard Hotel,2.0,49,Beijing,CN,China,46 Beixinqiao Santiao Dongcheng District,Beijing China,http://alleygardenhotel.com/,39.9432,116.42,Beijing,4.462341458813406
496,Aloft Beijing Haidian,3.0,97,Beijing,CN,China,Tower 2 25 Yuanda Road Haidian District,Beijing China,,39.9573,116.28,Beijing,12.383457851832729
497,Aman at Summer Palace,5.0,562,Beijing,CN,China,1 Gongmenqian Street Summer Palace,Beijing China,http://www.amanresorts.com/amanatsummerpalace/home.aspx,39.9976,116.28399999999999,Beijing,14.789922171284674
498,Anhui Tower,3.0,60,Beijing,CN,China,No 1 Huixin west Road Chaoyang District,Beijing China,,39.988,116.416,Beijing,9.333633372757877
499,Anyi Hotel,1.5,28,Beijing,CN,China,No.30 Jinganli Chaoyang District,Beijing China,,39.959,116.448,Beijing,7.004927136880055
500,Anzhen Plaza,4.0,123,Beijing,CN,China,No. 2 Andingmenwai Street Dongcheng District,Beijing China,http://www.anzhen.com.cn/,39.9682,116.40899999999999,Beijing,7.1074710485083
501,Ao Xiang Ge Hotel,2.0,24,Beijing,CN,China,No. yi 26 Zhanlanguan Road Xicheng Area,Beijing China,http://www.aoxianggehotel.com/,39.9292,116.344,Beijing,6.089674027314866
502,Aoyou Hotel,3.0,41,Beijing,CN,China,11 Plaza J of Huiyuan Apartment,Beijing China,http://activity.aoyou.com/activity/20110816ctd/,39.9944,116.402,Beijing,10.02585831596847
503,Apple Apartment Beijing,4.0,62,Beijing,CN,China,32 Baizi Wan,Beijing China,,39.9,116.47,Beijing,5.373869407854539
504,Apricot Courtyard Inn,3.5,44,Beijing,CN,China,No.24 Caochang N Lane Zhonglouwan hutong Gulou Street Dongcheng District,Beijing China,,39.9435,116.398,Beijing,4.436934375958549
505,ARIVA Beijing West Hotel & Serviced Apartment,4.0,80,Beijing,CN,China,36 Haidian South Road Haidian District,Beijing China,,39.974000000000004,116.302,Beijing,11.883272575360763
506,Ascott Beijing Serviced Apartments,5.0,120,Beijing,CN,China,No.108B Jian Guo Road,Beijing China,http://www.the-ascott.com/china/beijing/ascott_beijing.html,39.9073,116.465,Beijing,4.937770460355291
507,Ascott Raffles City Beijing,5.0,161,Beijing,CN,China,No.1-2 Dongzhimen South Street Dongcheng District,Beijing China,http://www2.the-ascott.com/china/beijing/ascott_raffles_city_beijing.html,39.9403,116.43299999999999,Beijing,4.567023951106811
508,Asia Hotel Beijing,5.0,91,Beijing,CN,China,No. 8 West Xinzhong Street East Gongti Road,Beijing China,http://www.asiahotels.com/Beijing,39.9326,116.439,Beijing,4.152621653837284
509,Asia Pacific Garden Hotel Beijing,4.0,70,Beijing,CN,China,75 Yuqiao West Road Tongzhou District,Beijing China,http://www.asiarooms.com/en/china/beijing/asia_pacific_garden.html,39.8867,116.671,Beijing,22.62800030601953
510,Asia Pacific Hotel Beijing,3.5,158,Beijing,CN,China,8 Yabao Road Chaoyang District,Beijing China,http://www.asiarooms.com/en/china/beijing/asia_pacific_garden.html,39.9156,116.436,Beijing,2.7539229064464745
511,Atravis Express Hotel (Beijing Dongsi),3.0,19,Beijing,CN,China,No.25 Yueya Alley Liutiao Dongsi Dongcheng District,Beijing China,http://www.cheapbeijinghotels.net/hotels.aspx,39.929,116.419,Beijing,2.926896033644923
512,Avic Hotel Beijing,4.0,97,Beijing,CN,China,10 Dongsanhuan Road Chaoyang,Beijing China,http://www.beijingservice.com/hotels/4-hotel/avichotel.htm,39.9051,116.463,Beijing,4.755862240024431
513,B&B Inn (Beijing Baishiqiao),2.0,40,Beijing,CN,China,31 Zhonguancun Street South Haidian District,Beijing China,,39.9472,116.324,Beijing,8.58029022431992
514,B&B Inn (Beijing Shaoyaoju),2.0,31,Beijing,CN,China,No.3 A3 Building Shaoyaoju Chaoyang District,Beijing China,,39.9787,116.432,Beijing,8.53509607729786
515,B&B Inn Olympic Village Beijing,2.0,39,Beijing,CN,China,5 Mingzuyuan Road Chaoyang District,Beijing China,,39.983000000000004,116.38799999999999,Beijing,8.9051043041368
516,Babylon Fashion Hotel,4.0,26,Beijing,CN,China,No.3 Tonghui Temple Haidian Middle Street South Exit Haidian District,Beijing China,http://www.dreaming-of-hotelbabylon.jp/,39.9761,116.31200000000001,Beijing,11.41099086317463
517,Baifenbai Apartment Hotel Beijing Zhongguancun,3.0,45,Beijing,CN,China,16 Haidian Middle Street Haidian District,Beijing China,http://www.beijingserviceapartment.com/,39.9773,116.31200000000001,Beijing,11.504551906282744
518,Baifenbai Hotel Zhichun Road,3.0,39,Beijing,CN,China,Ziji Digital Park Zhichun Road Haidian District,Beijing China,,39.9791,116.338,Beijing,10.214709983799366
519,Baimingxiang Business Hotel,2.0,45,Beijing,CN,China,1 Southeastern Corner Jia Fengyi Bridge West Third Ring Fengtai District,Beijing China,,39.8565,116.32,Beijing,9.162006998770966
520,Bamboo Garden Hotel Beijing,3.0,76,Beijing,CN,China,No. 24 Xiaoshiqiao Jiugulou Street Xicheng District,Beijing China,http://www.beijinghotelchina.com/bamboo_garden/index.htm,39.9442,116.385,Beijing,4.836450329519298
521,Bamin Hotel Beijing,3.0,43,Beijing,CN,China,No.2 Building 3 Madian South Road,Beijing China,http://www.tour-beijing.com/china_travel_guide/qinghai_travel_guide/Golmud_travel_guide.php,39.9684,116.374,Beijing,7.678642595991383
522,Baochao Hotel,1.0,42,Beijing,CN,China,107 Baochao Hutong Dongcheng District,Beijing China,,39.9417,116.4,Beijing,4.211491804078703
523,Baorui Liwan Hotel Beijing,4.0,102,Beijing,CN,China,7 Nanhang Street Sanlihe Xicheng District,Beijing China,,39.912,116.338,Beijing,5.996822922541548
524,BDA Wanyuan Apartment Hotel,3.0,52,Beijing,CN,China,7 Hong Da North Road,Beijing China,http://www.beijingserviceapartment.com/,39.8024,116.506,Beijing,14.105339351648256
525,BDA Yongkang Business Hotel,4.0,59,Beijing,CN,China,No.18 Kangding Street Daxing District,Beijing China,http://www.b20businesssummit.com/guests/companies,39.7692,116.531,Beijing,18.347087313432056
526,Beifa Hotel,3.0,63,Beijing,CN,China,Tiahu Tongzhou District,Beijing China,http://beifahotel.com/,39.830999999999996,116.62200000000001,Beijing,20.07958133998434
527,Beifang Langyue Hotel Beijing,2.0,21,Beijing,CN,China,No.10 Courtyard Chedaogou Haidian District,Beijing China,,39.9463,116.301,Beijing,10.22638458608464
528,Beiijng Guang Yun Hotel,3.0,51,Beijing,CN,China,122A Guanganmenwai Street Xuanwu District,Beijing China,,39.8883,116.344,Beijing,5.702017194856867
529,Beijing Ambassador Mansion Hotel,3.0,50,Beijing,CN,China,Yi 21 Jiuxianqiao Road Chaoyang District,Beijing China,http://mansionlafortehotelbeijing.priorguest.com/,39.9723,116.48899999999999,Beijing,10.286953107912336
530,Beijing Baifenbai Jiudian Gongyu Zhichunlu,3.0,38,Beijing,CN,China,Room 214 Building 2 No.18 Xi Wu Dao Kou Zhi Chun Road Hai Dian,Beijing China,http://www.beijinghoteldesk.com/sitemap.en.html,39.9795,116.337,Beijing,10.300577907765012
531,Beijing Bao Lin Xuan International Hotel,4.0,62,Beijing,CN,China,Courtyard 80 South Xizhan Road,Beijing China,http://www.beijing-hotels-reservation.com/Suyuan_Phoenix_Hotel_Beijing/,39.8764,116.322,Beijing,7.92942140504433
532,Beijing Binhai Sunny Business Hotel,3.0,32,Beijing,CN,China,75 Chaoyang Avenue Dongcheng,Beijing China,,39.9237,116.425,Beijing,2.636914526958893
533,Beijing Bohua Hotel,2.0,30,Beijing,CN,China,No.1 Wujia Village Road Jia Fengtai District,Beijing China,http://beijing.runweb.com/page-915-lang-EN-2V-page Chinese-painting.html,39.8892,116.24799999999999,Beijing,13.733314225574889
534,Beijing Boxin Hotel,2.5,23,Beijing,CN,China,39 Xihua Street,Beijing China,http://en.beijing2008.cn/,39.8974,116.42399999999999,Beijing,1.6081568418125578
535,BeiJing Broadcasting Tower Hotel,3.5,108,Beijing,CN,China,No.14A Jianwai Main Street Chaoyang District,Beijing China,http://www.beijing-hotel.cn/Chaoyang-hotels/Beijing-Broadcasting-Tower-Hotel.html,39.908,116.443,Beijing,3.073596562518953
536,Beijing Century Towers,4.0,66,Beijing,CN,China,No. 18 Guangqumenwai Street,Beijing China,http://www.beijinghotelchina.com/century-tower/beijing-apartment.html,39.8931,116.458,Beijing,4.499699082207155
537,Beijing Chun Hao Hotel,2.0,21,Beijing,CN,China,No.17 Daboge Hutong Wangfujing Street Dongcheng District,Beijing China,http://www.cheapbeijinghotels.net/hotels.aspx,39.9205,116.413,Beijing,1.8721962084581198
538,Beijing City Courtyard Hotel,3.0,28,Beijing,CN,China,14 Liulisi Xiang Baochao Hutong East Gulou Street Dongcheng District,Beijing China,,39.9447,116.40100000000001,Beijing,4.529978069977526
539,Beijing Commercial Business Hotel,3.0,62,Beijing,CN,China,No.1 Yulinli You An Men Wai Haidian Distric,Beijing China,http://www.beijingservice.com/hotels/2-hotel/businesshotel.htm,39.9763,116.311,Beijing,11.487671216242541
540,Beijing Courtel,2.0,57,Beijing,CN,China,8 Courtyard Andingmen West Street,Beijing China,http://beijingcourtel.com/,39.9491,116.402,Beijing,5.006699743316306
541,Beijing Da Hong Men International Convention Hotel,5.0,63,Beijing,CN,China,No.138 Yongwaigaozhuang Fengtai district,Beijing China,http://www.agoda.com/asia/china/beijing.html,39.8475,116.402,Beijing,6.312420616715957
542,Beijing Dajiaoting International Business Hotel,4.0,47,Beijing,CN,China,168-1 East Guangqu Road,Beijing China,http://www.qianyuaninternationalhotel.com/,39.8929,116.491,Beijing,7.259046223641117
543,Beijing Daxing Huangcun Express Hotel,1.0,30,Beijing,CN,China,No.2 East Exit A Qingyuan Road Huangcun Town Daxing District,Beijing China,,39.7423,116.344,Beijing,18.77746743193526
544,Beijing Debao Hot Springs Conference Center,3.0,32,Beijing,CN,China,Duobao Road 1 Liangxiang Fangshan,Beijing China,http://www.beijingservice.com/hotels/4-hotel/debaohotel.htm,39.7369,116.149,Beijing,28.887366784536127
545,Beijing Desheng Hotel,3.0,59,Beijing,CN,China,No.14 Middle Road North Loop 3 Xicheng District,Beijing China,http://www.topbeijingtravel.com/beijing-hotels/,39.9685,116.391,Beijing,7.275707526706537
546,Beijing Dong Fang Hotel,3.5,49,Beijing,CN,China,11 Wanming Road,Beijing China,http://www.dongfanghotelbeijing.cn/,39.8879,116.39,Beijing,2.342853502966374
